parent_opeid,opeid,state,school_name,loc_name,school_addr,school_lat,school_lon,geometry,index_right,Head Start Address,Head_Start_Lat,Head_Start_Lon,distance_meters,distance_mi
100700,100700,AL,CENTRAL ALABAMA COMMUNITY COLLEGE,CENTRAL ALABAMA COMMUNITY COLLEGE - MAIN CAMPUS,"1675 Cherokee Road, Alexander City, AL 35010",32.9244453,-85.9471008,POINT (891871.4490484234 -735809.2371530648),110,"277 Tallapoosa St, Alexander City, AL 35010-1926",32.9442882,-85.9504932,2221.201505578683,1.3801906277207874
100700,100701,AL,CENTRAL ALABAMA COMMUNITY COLLEGE,CENTRAL ALABAMA COMMUNITY COLLEGE - CHILDERSBURG CAMPUS,"34091 US Highway 280, Childersburg, AL 35044",33.2607344,-86.3470626,POINT (852572.0362581953 -702567.7776493892),124,"261 Pinecrest Dr, Childersburg, AL 35044-1042",33.3002431,-86.3490561,4385.4368053634025,2.7249840962301426
100700,100708,AL,CENTRAL ALABAMA COMMUNITY COLLEGE,CENTRAL ALABAMA COMMUNITY COLLEGE - TALLADEGA CENTER,"1009 South Street East, Talladega, AL 35160",33.4352788,-86.0825065,POINT (873739.6133699924 -680809.6422647124),240,"723 Scott St, Talladega, AL 35160-1631",33.445726,-86.0889519,1290.8622014307612,0.8021045851171416
100700,100710,AL,CENTRAL ALABAMA COMMUNITY COLLEGE,CENTRAL ALABAMA COMMUNITY COLLEGE - PRATTVILLE CAMPUS,"1320 Old Ridge Rd, Prattville, AL 36066",32.4996625,-86.4246622,POINT (854615.225395538 -787229.5287025365),43,"5720 Main St, Millbrook, AL 36054-1816",32.5119767,-86.3745288,4685.814876291236,2.911630376284521
101300,101300,AL,CALHOUN COMMUNITY COLLEGE,CALHOUN COMMUNITY COLLEGE - DECATUR CAMPUS,"6250 Highway 31 North, Tanner, AL 35671",34.6480472,-86.9484052,POINT (784348.672965283 -554909.8953768983),25,"801 Wilson St NW, Decatur, AL 35601-1037",34.6206136,-86.9955519,5100.38895251154,3.1692347642962226
101300,101301,AL,CALHOUN COMMUNITY COLLEGE,CALHOUN COMMUNITY COLLEGE - HUNTSVILLE CAMPUS,"102-B Wynn Drive, Huntsville, AL 35805",34.7156193,-86.6560731,POINT (808823.4413121215 -544891.185232172),152,"4503 University Dr NW, Huntsville, AL 35816-3401",34.7331064,-86.6375696,2517.378518908837,1.564226491607038
101500,101504,AL,ENTERPRISE STATE COMMUNITY COLLEGE,"ENTERPRISE STATE COMMUNITY COLLEGE - ALABAMA AVIATION COLLEGE, ANDALUSIA","21760 Bill Benton Lane, Andalusia, AL 36421",31.3045254,-86.3937034,POINT (871342.4187775237 -918722.0291034408),64,"602 Seegers St, Andalusia, AL 36420-4725",31.3003267,-86.4955089,9263.460206436417,5.756047312716496
101500,101502,AL,ENTERPRISE STATE COMMUNITY COLLEGE,"ENTERPRISE STATE COMMUNITY COLLEGE - ALABAMA AVIATION COLLEGE, OZARK","3405 South U.S. Highway 231, Ozark, AL 36361",31.4312214,-85.6231304,POINT (939345.5487896041 -897086.9979603993),12,"405 Marvin Parker Rd, Ozark, AL 36360-7239",31.4758471,-85.6569334,5820.736668587998,3.6168380834600917
101500,101500,AL,ENTERPRISE STATE COMMUNITY COLLEGE,ENTERPRISE STATE COMMUNITY COLLEGE - MAIN CAMPUS,"600 Plaza Drive, Enterprise, AL 36331",31.3000905,-85.8361959,POINT (921761.162912866 -913714.0028142656),232,"1617 E Park Ave, Enterprise, AL 36330-4275",31.305338,-85.8167436,1861.0338149638653,1.156392800398091
101700,,AL,GADSDEN STATE COMMUNITY COLLEGE,GADSDEN STATE COMMUNITY COLLEGE - EAST BROAD CAMPUS,"1001 East Broad Street Gadsden, AL 35903",33.9996901,-85.9860257,POINT (875324.9685323181 -617654.3070191436),86,"324 Ewing Ave, Gadsden, AL 35901-2519",34.020724,-85.991644,2384.455366707128,1.4816318740475176
101700,101702,AL,GADSDEN STATE COMMUNITY COLLEGE,GADSDEN STATE COMMUNITY COLLEGE - VALLEY STREET CAMPUS,"600 Valley Street, Gadsden, AL 35901",34.0249643,-85.9957712,POINT (874168.7289537828 -614961.53885945),86,"324 Ewing Ave, Gadsden, AL 35901-2519",34.020724,-85.991644,593.1421424929392,0.3685614402470443
101700,101709,AL,GADSDEN STATE COMMUNITY COLLEGE,GADSDEN STATE COMMUNITY COLLEGE - CHEROKEE CAMPUS,"801 Cedar Bluff Road, Centre, AL 35960",34.1646945,-85.6641877,POINT (901261.6546067002 -596321.8629951488),233,"600 Piedmont Hwy, Centre, AL 35960-2117",34.1394766,-85.6688917,2827.3462300627075,1.756831497841796
101700,101700,AL,GADSDEN STATE COMMUNITY COLLEGE,GADSDEN STATE COMMUNITY COLLEGE - MAIN CAMPUS,"1001 George Wallace Drive, Gadsden, AL 35903",33.9959754,-85.9917038,POINT (874875.9149581228 -618118.50155109),86,"324 Ewing Ave, Gadsden, AL 35901-2519",34.020724,-85.991644,2745.189209664614,1.7057814921263657
101700,101706,AL,GADSDEN STATE COMMUNITY COLLEGE,GADSDEN STATE COMMUNITY COLLEGE - HARRY M. AYERS CAMPUS,"1801 Coleman Road, Anniston, AL 36207",33.6227719,-85.8029651,POINT (895938.5681374015 -657420.9371767641),8,"1200 Johnson Ave, Anniston, AL 36201-6538",33.6331887,-85.833986,2965.4499030814054,1.8426451417977794
101800,,AL,WALLACE COMMUNITY COLLEGE,WALLACE COMMUNITY COLLEGE-DOTHAN - SPARKS CAMPUS,"3235 South Eufaula Avenue, Eufaula, AL 36027",31.8404477,-85.1642086,POINT (975301.803093715 -847188.4644928558),69,"333 State Docks Rd, Eufaula, AL 36027-3317",31.8683043,-85.1513124,3300.6332830389183,2.050918438220118
101800,,AL,WALLACE COMMUNITY COLLEGE,WALLACE COMMUNITY COLLEGE-SELMA - DEMOPOLIS CAMPUS,"186 Fields of Dream Drive, Gallion, Alabama 36742",32.4848084,-87.7863824,POINT (733586.2877421645 -800761.1422892814),37,"1227 US Highway 43 South, Eutaw, AL 35462-4024",32.5032753,-87.8227841,3845.775454167222,2.3896540790329612
101800,569900,AL,WALLACE COMMUNITY COLLEGE,WALLACE COMMUNITY COLLEGE-SELMA - MAIN CAMPUS,"3000 Earl Goodwin Parkway, Selma, AL 36703",32.4465946,-87.0125607,POINT (802901.6719977523 -798442.0927329113),45,"2906B Citizens Pkwy, Selma, AL 36701-3915",32.4416203,-87.0171316,686.7244878291261,0.42671081374095665
101800,569900,AL,WALLACE COMMUNITY COLLEGE,WALLACE COMMUNITY COLLEGE-SELMA - MAIN CAMPUS,"3000 Earl Goodwin Parkway, Selma, AL 36703",32.4465946,-87.0125607,POINT (802901.6719977523 -798442.0927329113),141,"2906 Citizens Pkwy, Selma, AL 36701-3915",32.4416203,-87.0171316,686.7244878291261,0.42671081374095665
101800,101800,AL,WALLACE COMMUNITY COLLEGE,WALLACE COMMUNITY COLLEGE-DOTHAN - MAIN CAMPUS,"1141 Wallace Drive, Dothan, AL 36303",31.3156396,-85.4666895,POINT (954925.3692083148 -908188.1588072985),102,"346 3rd St, Midland City, AL 36350-7464",31.3177592,-85.4952776,2608.121201071976,1.6206113802095612
102200,102201,AL,JEFFERSON STATE COMMUNITY COLLEGE,JEFFERSON STATE COMMUNITY COLLEGE - SHELBY-HOOVER CAMPUS,"4600 Valleydale Road, Birmingham, AL 35242",33.385591,-86.733504,POINT (817152.4527180512 -692342.7832505681),24,"1712 3rd St SW, Birmingham, AL 35211-3860",33.4785831,-86.8374466,13804.967344098237,8.578009017399783
102200,102202,AL,JEFFERSON STATE COMMUNITY COLLEGE,JEFFERSON STATE COMMUNITY COLLEGE - CHILTON-CLANTON CAMPUS,"1850 Lay Dam Road, Clanton, AL 35045",32.8722949,-86.6213851,POINT (832865.7805991027 -747954.6114785066),145,"413 14th St S, Clanton, AL 35045-3257",32.8322709,-86.6419396,4800.820112968878,2.983091317312444
102200,102200,AL,JEFFERSON STATE COMMUNITY COLLEGE,JEFFERSON STATE COMMUNITY COLLEGE - MAIN CAMPUS,"2601 Carson Road, Birmingham, AL 35215",33.6518095,-86.7080876,POINT (816373.9764959067 -662740.7830160751),113,"520 23rd Ave NW, Center Point, AL 35215-3210",33.6460435,-86.698224,1078.2815073494041,0.6700130657891689
102200,102203,AL,JEFFERSON STATE COMMUNITY COLLEGE,JEFFERSON STATE COMMUNITY COLLEGE - ST. CLAIR-PELL CITY CAMPUS,"500 College Circle, Pell City, AL 35125",33.606445,-86.2921517,POINT (853317.7012327858 -663926.2660151226),163,"21685 US Hwy 231, Pell City, AL 35125",33.5890202,-86.2806423,2182.3975501831956,1.356078967693169
102600,102600,AL,MARION MILITARY INSTITUTE,MARION MILITARY INSTITUTE,"1101 Washington Street, Marion, AL 36756",32.6240116,-87.3208697,POINT (773568.729675532 -781532.5907461372),111,"200 W Monroe St, Marion, AL 36756-2228",32.6341097,-87.3206796,1119.9865045571303,0.6959273496263882
103000,103003,AL,BISHOP STATE COMMUNITY COLLEGE,BISHOP STATE COMMUNITY COLLEGE - BAKER-GAINES CENTRAL CAMPUS,"1365 Martin Luther King Avenue, Mobile, AL 36603",30.6999259,-88.06679,POINT (725851.203401095 -1000139.027042471),66,"321 N Warren St, Mobile, AL 36603-5938",30.6948706,-88.0528084,1398.1580898045213,0.8687751591981089
103000,103000,AL,BISHOP STATE COMMUNITY COLLEGE,BISHOP STATE COMMUNITY COLLEGE - MAIN CAMPUS,"351 North Broad Street, Mobile, AL 36603",30.695018,-88.0567847,POINT (726811.7808763188 -1000601.1435925997),66,"321 N Warren St, Mobile, AL 36603-5938",30.6948706,-88.0528084,364.6640420833579,0.22659173059542143
103000,103002,AL,BISHOP STATE COMMUNITY COLLEGE,BISHOP STATE COMMUNITY COLLEGE - SOUTHWEST CAMPUS,"925 Dauphin Island Parkway, Mobile, AL 36605",30.6591367,-88.0871374,POINT (724387.246722504 -1004806.1704869542),226,"1655 Eagle Dr, Mobile, AL 36605-2133",30.652865,-88.077192,1146.5321627891424,0.7124220569307385
103000,103001,AL,BISHOP STATE COMMUNITY COLLEGE,BISHOP STATE COMMUNITY COLLEGE - CARVER CAMPUS,"414 Stanton Street, Mobile, AL 36617",30.723088,-88.10244,POINT (722374.8904915394 -997864.799018306),16,"535 Easterling St, Prichard, AL 36610-4203",30.7329948,-88.0913643,1495.0081614598828,0.928955003690872
103100,103100,AL,NORTHEAST ALABAMA COMMUNITY COLLEGE,NORTHEAST ALABAMA COMMUNITY COLLEGE,"138 Highway 35, 138 Alabama Highway 35 West, Rainsville, AL 35986",34.5448368,-85.911926,POINT (875080.5177366028 -556838.4849053153),182,"63 West St, Sylvania, AL 35988-2438",34.5589384,-85.8179039,8320.214390842277,5.169941535707888
103800,103800,AL,SNEAD STATE COMMUNITY COLLEGE,SNEAD STATE COMMUNITY COLLEGE - MAIN CAMPUS,"220 North Walnut Street, Boaz, AL 35957",34.2009131,-86.1690164,POINT (856984.160973002 -597209.5791060771),121,"908 Cooley St, Albertville, AL 35950-8510",34.2573864,-86.1863406,6444.404526188282,4.004367323697284
103800,103803,AL,SNEAD STATE COMMUNITY COLLEGE,SNEAD STATE COMMUNITY COLLEGE - ALBERTVILLE AVIATION CENTER,"24 Aviation Way, Albertville, AL 35950",34.2279052,-86.2488073,POINT (849734.9999019359 -594981.6014067618),121,"908 Cooley St, Albertville, AL 35950-8510",34.2573864,-86.1863406,6358.2367688588065,3.9508251615930505
103800,103801,AL,SNEAD STATE COMMUNITY COLLEGE,SNEAD STATE COMMUNITY COLLEGE - ARAB INSTRUCTIONAL SITE,"261 South Main Street, Arab, AL 35016",34.3126067,-86.4955392,POINT (827333.659480933 -587913.7578353373),52,"324 Cullman Rd, Arab, AL 35016-1360",34.3163787,-86.4991216,522.170631382181,0.32446178777326723
104000,104002,AL,SOUTHERN UNION STATE COMMUNITY COLLEGE,SOUTHERN UNION STATE COMMUNITY COLLEGE - OPELIKA CAMPUS,"301 Lake Condy Road, Opelika, AL 36801",32.669075,-85.3667082,POINT (946438.4945047492 -758080.3444288846),10,"601 S 4th St, Opelika, AL 36801-5917",32.6468193,-85.368766,2474.9435676791127,1.537858635368891
104000,104000,AL,SOUTHERN UNION STATE COMMUNITY COLLEGE,SOUTHERN UNION STATE COMMUNITY COLLEGE - MAIN CAMPUS,"750 Roberts Street, Wadley, AL 36276",33.1293106,-85.5733034,POINT (922291.6390101552 -709503.7293342457),164,"620 Main St, Roanoke, AL 36274-1442",33.1509387,-85.3678229,18370.229897234385,11.414731652918446
104000,,AL,SOUTHERN UNION STATE COMMUNITY COLLEGE,SOUTHERN UNION STATE COMMUNITY COLLEGE - VALLEY CAMPUS,"321 Fob James Drive, Valley, AL 36854",32.8166793,-85.1946668,POINT (959739.2601892252 -740021.4028268502),135,"1319 Magnolia Rd, Lanett, AL 36863-4681",32.8456185,-85.2024039,3282.4613368185665,2.0396269143319055
105900,105901,AL,LAWSON STATE COMMUNITY COLLEGE,LAWSON STATE COMMUNITY COLLEGE - BESSEMER CAMPUS,"1100 Ninth Avenue, Southwest, Bessemer, AL 35021",33.373878,-86.991847,POINT (794574.9741580284 -695924.9310995579),189,"2410 7th Ave N, Bessemer, AL 35020-4006",33.4118678,-86.9534125,5410.962406109015,3.362216161435352
105900,105900,AL,LAWSON STATE COMMUNITY COLLEGE,LAWSON STATE COMMUNITY COLLEGE - MAIN CAMPUS,"3060 Wilson Road Southwest, Birmingham, AL 35221",33.4507015,-86.8888905,POINT (802773.8088740539 -686542.2197297366),236,"416 Parkwood St, Midfield, AL 35228-2231",33.4600527,-86.9121067,2296.4169769634304,1.426927354849821
106000,106000,AL,COASTAL ALABAMA COMMUNITY COLLEGE,COASTAL ALABAMA COMMUNITY COLLEGE - MAIN CAMPUS,"1900 Highway 31 South, Bay Minette, AL 36507",30.8516559,-87.7773586,POINT (750742.7972564765 -981033.6844752968),41,"16742 County Road 68, Loxley, AL 36551-3226",30.6313573,-87.7373839,24696.148354007913,15.34547514639997
106000,106002,AL,COASTAL ALABAMA COMMUNITY COLLEGE,COASTAL ALABAMA COMMUNTY COLLEGE - GULF SHORES CAMPUS,"3301 Gulf Shores Parkway, Gulf Shores, AL 36542",30.2893007,-87.6864839,POINT (764708.7637526683 -1042362.7922983562),41,"16742 County Road 68, Loxley, AL 36551-3226",30.6313573,-87.7373839,38207.92103383241,23.741301445702355
106000,106009,AL,COASTAL ALABAMA COMMUNITY COLLEGE,COASTAL ALABAMA COMMUNITY COLLEGE - JACKSON CENTER,"235 College Avenue, Jackson, AL 36545",31.5133804,-87.8947434,POINT (733522.9754174136 -908920.2067892959),90,"3728 Topton Rd, Mc Intosh, AL 36553-6308",31.2811621,-88.0935694,31441.687406991165,19.53695879003567
106000,106008,AL,COASTAL ALABAMA COMMUNITY COLLEGE,COASTAL ALABAMA COMMUNITY COLLEGE - GILBERTOWN CAMPUS,"251 College St, Gilbertown, AL 36908",31.8720591,-88.3154649,POINT (692183.980920531 -872597.4252937012),42,"201 Tom Orr Dr, Butler, AL 36904-2409",32.0820617,-88.2331542,24437.666944943318,15.184862245078316
106000,106014,AL,COASTAL ALABAMA COMMUNITY COLLEGE,COASTAL ALABAMA COMMUNITY COLLEGE - ALABAMA AVIATION CENTER,"1975 Avenue C, Mobile, AL 36615",30.6469389,-88.0670955,POINT (726335.1639090842 -1005993.4504897892),226,"1655 Eagle Dr, Mobile, AL 36605-2133",30.652865,-88.077192,1135.0363373085647,0.7052788821461196
106000,106010,AL,COASTAL ALABAMA COMMUNITY COLLEGE,COASTAL ALABAMA COMMUNITY COLLEGE - BREWTON CAMPUS,"220 Alco Drive, Brewton, AL 36427",31.1026849,-87.0869687,POINT (810858.976200521 -947397.5607427844),3504,"13833 Alabama St, Jay, FL 32565-1055",30.9400637,-87.15721,19134.503457222363,11.889629226083649
106000,,AL,COASTAL ALABAMA COMMUNITY COLLEGE,COASTAL ALABAMA COMMUNITY COLLEGE - ATMORE CAMPUS,"6574 AL Hwy 21, Atmore, AL 36502",31.1137279,-87.4702461,POINT (775980.4177309566 -949523.0225618667),3481,"5721 Highway 99, Century, FL 32535-3125",30.9732384,-87.2638628,24430.218708453926,15.180234125490836
106000,106007,AL,COASTAL ALABAMA COMMUNITY COLLEGE,COASTAL ALABAMA COMMUNITY COLLEGE - THOMASVILLE CAMPUS,"30755 Highway 43 South, Thomasville, AL 36784",31.8995675,-87.7458159,POINT (743082.4914326798 -865063.1698120127),33,"500 Leroy Randolph Rd, Pine Hill, AL 36769-2618",31.9712945,-87.593447,15866.604707836541,9.859051084066888
106000,106005,AL,COASTAL ALABAMA COMMUNITY COLLEGE,COASTAL ALABAMA COMMUNITY COLLEGE - S BALDWIN CENTER FOR TECH,"19200 Carolina Street, Robertsdale, AL 36567",30.5494958,-87.6963605,POINT (761172.4198409929 -1013720.876296138),41,"16742 County Road 68, Loxley, AL 36551-3226",30.6313573,-87.7373839,9824.854605800812,6.104881619964912
106000,106001,AL,COASTAL ALABAMA COMMUNITY COLLEGE,COASTAL ALABAMA COMMUNITY COLLEGE - FAIRHOPE CAMPUS,"440 Fairhope Avenue, Fairhope, AL 36532",30.5228053,-87.9021255,POINT (742624.1736165963 -1018369.2195904575),53,"1600 Boykin Blvd, Mobile, AL 36605-4217",30.5950493,-88.0798522,18172.447314932324,11.291835253949635
106000,106004,AL,COASTAL ALABAMA COMMUNITY COLLEGE,COASTAL ALABAMA COMMUNITY COLLEGE - N BALDWIN CENTER FOR TECH,"505 West Hurricane Road, Bay Minette, AL 36507",30.8655904,-87.7835197,POINT (750042.4032227045 -979545.9584499031),41,"16742 County Road 68, Loxley, AL 36551-3226",30.6313573,-87.7373839,26309.563072052737,16.348004573324744
106000,,AL,COASTAL ALABAMA COMMUNITY COLLEGE,COASTAL ALABAMA COMMUNITY COLLEGE - FOLEY CAREER AND TECHNICAL FACILITY,"19812 Underwood Rd, Foley, AL 36535",30.4354078,-87.6854634,POINT (763323.419176003 -1026224.6489001082),41,"16742 County Road 68, Loxley, AL 36551-3226",30.6313573,-87.7373839,22240.15959907785,13.819394485627592
106000,106006,AL,COASTAL ALABAMA COMMUNITY COLLEGE,COASTAL ALABAMA COMMUNITY COLLEGE - MONROEVILLE CAMPUS,"2800 South Alabama Avenue, Monroeville, AL 36460",31.4885155,-87.3270798,POINT (785008.2133933223 -906925.8406688322),63,"1945 Drewry Rd, Monroeville, AL 36460-5896",31.500633,-87.3031276,2553.1796928709864,1.586472309755395
106500,106500,AK,UNIVERSITY OF ALASKA-SOUTHEAST,UNIVERSITY OF ALASKA-SOUTHEAST,"11066 Auke Lake Way, Juneau, AK 998018680",58.3855214,-134.6407459,POINT (-2165991.4927198724 2511961.5428625406),356,"9001 Mendenhall Loop Rd, Juneau, AK 99801",58.4013057,-134.582864,3777.7729405123696,2.34739927604811
106500,106501,AK,UNIVERSITY OF ALASKA-SOUTHEAST,UNIVERSITY OF ALASKA-SOUTHEAST - KETCHIKAN CAMPUS,"2600 7th Ave, Ketchikan, AK 99901",55.3552845,-131.6767788,POINT (-2137871.670812981 2132115.953983587),273,"1001 Schoenbar Rd, Ketchikan, AK 99901-6284",55.3485154,-131.64671,1996.6955944267304,1.2406891220439697
106500,106502,AK,UNIVERSITY OF ALASKA-SOUTHEAST,UNIVERSITY OF ALASKA-SOUTHEAST - SITKA CAMPUS,"1332 Seward Ave, Sitka, AK 99835",57.0526212,-135.3527859,POINT (-2265664.2857626104 2394306.7022265885),332,"303 Kimsham St
# B, Sitka, AK 99835-7124",57.0627255,-135.3479327,1161.5706478703562,0.7217665383350956
107100,107115,AZ,ARIZONA WESTERN COLLEGE,ARIZONA WESTERN COLLEGE - QUARTZSITE LEARNING CENTER,"695 North Kofa Avenue, Quartzsite, AZ 85346",33.6770437,-114.2338023,POINT (-1593496.619212183 -541385.2259485564),641,"49241 Ehrenberg- Poston Highway
Ehrenberg Elementary School, Ehrenberg, AZ 85334",33.6135628,-114.5095485,25271.680455196056,15.703094214286104
107100,107103,AZ,ARIZONA WESTERN COLLEGE,ARIZONA WESTERN COLLEGE - DOWNTOWN CENTER,"1351 South Redondo Center, Yuma, AZ 85365",32.7029701,-114.6112405,POINT (-1647982.1265146316 -640480.470396589),601,"840 E 22nd St, Yuma, AZ 85365-2425",32.68775,-114.6123965,1691.0365534053453,1.0507613993063916
107100,107102,AZ,ARIZONA WESTERN COLLEGE,ARIZONA WESTERN COLLEGE - SAN LUIS CENTER,"1340 North 8th Avenue, San Luis, AZ 85349",32.501697,-114.7605778,POINT (-1665590.7714664282 -659610.3952496125),683,"649 N 9th Avenue, San Luis, AZ 85349-3933",32.5025799,-114.7563316,392.0906325477953,0.24363382381131396
107100,107104,AZ,ARIZONA WESTERN COLLEGE,ARIZONA WESTERN COLLEGE - SOMERTON CENTER,"1011 North Somerton Avenue, Somerton, AZ 85350",32.6043331,-114.7110915,POINT (-1658933.9300639578 -649373.8566731679),687,"435 W Jacobs St
435 W Jacobs Street, Somerton, AZ 85350",32.6003166,-114.7137585,505.0821056886588,0.31384347018950504
107100,107118,AZ,ARIZONA WESTERN COLLEGE,ARIZONA WESTERN COLLEGE - WELLTON LEARNING CENTER,"28851 County 12th Street, Wellton, AZ 85356",32.6485592,-114.1430529,POINT (-1608280.0868582465 -654775.0962369064),445,"29126 East San Jose Avenue, Wellton, AZ 85356",32.6722185,-114.140266,2635.528241948756,1.6376413258748634
107100,107100,AZ,ARIZONA WESTERN COLLEGE,ARIZONA WESTERN COLLEGE - MAIN CAMPUS,"2020 South Avenue 8E, Yuma, AZ 85365",32.6892968,-114.4960487,POINT (-1638230.00623265 -644046.9390411595),611,"2950 S Avenue 10 E, Yuma, AZ 85365-7115",32.6743198,-114.4613568,3511.93347572871,2.1822142908717526
107100,,AZ,ARIZONA WESTERN COLLEGE,ARIZONA WESTERN COLLEGE - PARKER LEARNING CENTER,"1109 Geronimo Ave, Parker, AZ 85344",34.1504874,-114.2848347,POINT (-1587407.3480873904 -489033.005933106),584,"18026 Mohave Rd, Parker, AZ 85344-9766",34.0646956,-114.3901443,13243.312369936208,8.229012796478694
107100,107108,AZ,ARIZONA WESTERN COLLEGE,ARIZONA WESTERN COLLEGE - SAN LUIS TECHNOLOGY INSTITUTE,"1135 North Main Street, San Luis, AZ 85349",32.4990562,-114.7855313,POINT (-1667834.662575401 -659439.6500938823),658,"541 6th Ave, San Luis, AZ 85349",32.4877755,-114.7701543,1858.9750056565376,1.1551135156042074
107200,107202,AZ,COCHISE COLLEGE,COCHISE COLLEGE - WILLCOX,"470 North Bisbee Avenue, Willcox, AZ 85643",32.2587936,-109.8420005,POINT (-1236984.370455993 -764646.8360349223),694,"611 N Bisbee Ave, Willcox, AZ 85643-1416",32.2616276,-109.8407912,332.4644459149892,0.20658382913472148
107200,107200,AZ,COCHISE COLLEGE,COCHISE COLLEGE - MAIN CAMPUS,"901 North Colombo, Sierra Vista, AZ 85635",31.5637785,-110.2478083,POINT (-1284982.2521144443 -835169.0185905587),586,"5142 Paseo Las Palmas, Sierra Vista, AZ 85635-3924",31.5444636,-110.2440813,2168.0595846457604,1.3471697689529152
107200,107208,AZ,COCHISE COLLEGE,COCHISE COLLEGE - DOUGLAS,"4190 West Highway 80, Douglas, AZ 85607",31.3660232,-109.690304,POINT (-1238378.9227840505 -864572.9069023525),547,"460 F Ave, Douglas, AZ 85607-2828",31.3390407,-109.553215,12804.28370885094,7.956213033913781
107200,107207,AZ,COCHISE COLLEGE,COCHISE COLLEGE - DOWNTOWN CENTER,"2600 East Wilcox Drive, Sierra Vista, AZ 85635",31.5515309,-110.2714933,POINT (-1287313.0631347508 -836175.3590108494),643,"55 S 5th St, Sierra Vista, AZ 85635-1857",31.5539131,-110.2932281,1986.1992792222395,1.2341670141512564
107200,107203,AZ,COCHISE COLLEGE,COCHISE COLLEGE - BENSON,"1025 State Route 90, Benson, AZ 85602",31.9526804,-110.3403299,POINT (-1286485.1316149824 -791269.9620791909),706,"300 W Union St, Benson, AZ 85602-6871",31.962767,-110.3007913,3733.0383352704107,2.3196024810546474
107300,107300,AZ,EASTERN ARIZONA COLLEGE,EASTERN ARIZONA COLLEGE,"615 North Stadium Avenue, Thatcher, AZ 85552",32.8461904,-109.7615391,POINT (-1220028.3507639072 -701342.5368101392),622,"1415 S Central Ave, Safford, AZ 85546-2534",32.8230885,-109.7106783,5201.747399674678,3.232215983453306
107600,107600,AZ,GLENDALE COMMUNITY COLLEGE,GLENDALE COMMUNITY COLLEGE - MAIN CAMPUS,"6000 West Olive Avenue, Glendale, AZ 85302",33.5694333,-112.1908271,POINT (-1419082.1682123349 -586952.3198999494),604,"4626 W Mountain View Rd, Glendale, AZ 85302-2609",33.575019,-112.1591824,2856.18061257541,1.7747483524811414
107600,107603,AZ,GLENDALE COMMUNITY COLLEGE,GLENDALE COMMUNITY COLLEGE - NORTH CAMPUS,"5727 W. Happy Valley Road, Glendale, AZ 85310",33.7106332,-112.1869864,POINT (-1415975.8603980981 -571598.4132798341),656,"5550 W Bell Rd, Glendale, AZ 85308-3866",33.640356,-112.1798608,7820.08303874461,4.859174321179692
107700,107705,AZ,MESA COMMUNITY COLLEGE,MESA COMMUNITY COLLEGE - MESA DOWNTOWN CENTER,"145 North Centennial Way, Mesa, AZ 85204",33.4187009,-111.8277007,POINT (-1390476.2777220793 -609022.0747033764),616,"161 N Mesa Dr, Mesa, AZ 85201-6756",33.4194083,-111.8226978,448.647606696358,0.27877669826734247
107700,107703,AZ,MESA COMMUNITY COLLEGE,MESA COMMUNITY COLLEGE - RED MOUNTAIN CAMPUS,"7110 East McKellips Road, Mesa, AZ 85207",33.4548659,-111.6760986,POINT (-1376602.6699842392 -607377.637162856),714,"950 N Sunvalley Blvd, Mesa, AZ 85207-3801",33.4313082,-111.6729332,2627.729761376049,1.6327955747037606
107700,107700,AZ,MESA COMMUNITY COLLEGE,MESA COMMUNITY COLLEGE - SOUTHERN AND DOBSON CAMPUS,"1833 West Southern Avenue, Mesa, AZ 85202",33.3896175,-111.873557,POINT (-1395024.0881284173 -611496.5082127766),566,"1133 S Dobson Rd
Ste 101, Mesa, AZ 85202-3942",33.3946914,-111.8736155,562.776444308163,0.34969307016285084
107800,107800,AZ,PHOENIX COLLEGE,PHOENIX COLLEGE - MAIN CAMPUS,"1202 West Thomas Road, Phoenix, AZ 85013",33.483127,-112.0883901,POINT (-1411882.8711306378 -597969.1026288015),533,"3310 N 10th Ave, Phoenix, AZ 85013-4009",33.4861036,-112.0867134,361.76329700490044,0.22478929116764373
107800,107802,AZ,PHOENIX COLLEGE,PHOENIX COLLEGE - CENTER FOR NURSING EXCELLENCE,"3700 N. 3rd Avenue, Phoenix, AZ 85013",33.4906459,-112.078656,POINT (-1410890.8584622648 -597299.2570348885),533,"3310 N 10th Ave, Phoenix, AZ 85013-4009",33.4861036,-112.0867134,871.1963384930187,0.541336307522207
107800,107803,AZ,PHOENIX COLLEGE,PHOENIX COLLEGE - CENTER OF EXCELLENCE FOR HEALTHCARE EDUCATION,"3144 N. 7th Avenue, Phoenix, AZ 85013",33.4854793,-112.0835929,POINT (-1411420.371963854 -597786.7474689671),533,"3310 N 10th Ave, Phoenix, AZ 85013-4009",33.4861036,-112.0867134,283.84797261900354,0.17637495316042034
107800,,AZ,PHOENIX COLLEGE,PHOENIX COLLEGE - MARICOPA IT INSTITUTE,"640 N. 1st Avenue, Phoenix, AZ 85003",33.4562194,-112.0753603,POINT (-1411276.1986628848 -601109.2202653062),693,"330 N 16th Ave, Phoenix, AZ 85007-2443",33.4528698,-112.0952832,1797.0640463144218,1.1166438289852398
107900,107905,AZ,YAVAPAI COLLEGE,YAVAPAI COLLEGE - CAREER & TECHNICAL EDUCATION CENTER,"220 Ruger Road, Prescott, AZ 86301",34.6552557,-112.4236517,POINT (-1417631.4393721474 -464807.9437562998),559,"6955 Panther Path
# A, Prescott Valley, AZ 86314-2252",34.5977995,-112.34337,9445.133211827679,5.868933684673804
107900,107900,AZ,YAVAPAI COLLEGE,YAVAPAI COLLEGE - MAIN CAMPUS,"1100 East Sheldon Street, Prescott, AZ 86301",34.5481087,-112.4559316,POINT (-1422526.6253384894 -475996.2564461036),510,"828 Rodeo Dr, Prescott, AZ 86305-2300",34.5497865,-112.4828005,2342.778296724741,1.4557349433836027
107900,,AZ,YAVAPAI COLLEGE,YAVAPAI COLLEGE - VERDE VALLEY CAMPUS,"601 Black Hills Drive, Clarkdale, AZ 86324",34.7361122,-112.0554771,POINT (-1384611.1486430652 -461653.91814497457),399,"601 Black Hills Dr, Clarkdale, AZ 86324-3736",34.7361122,-112.0554771,0.0,0.0
107900,107904,AZ,YAVAPAI COLLEGE,YAVAPAI COLLEGE - SEDONA CENTER,"4215 Arts Village Drive, Sedona, AZ 86336",34.8505396,-111.8303556,POINT (-1363195.9824649533 -452555.74245361483),484,"570 Posse Ground Rd, Sedona, AZ 86336-4708",34.8726738,-111.7859199,4562.434446518207,2.834965331537699
107900,107902,AZ,YAVAPAI COLLEGE,YAVAPAI COLLEGE - CHINO VALLEY CENTER,"2275 Old Home Manor Way, Chino Valley, AZ 86323",34.7862606,-112.4149904,POINT (-1414282.6441917117 -450646.014733022),404,"1985 N Road 1 W, Chino Valley, AZ 86323-7600",34.7738197,-112.4646755,4520.333542087636,2.8088050423574047
107900,,AZ,YAVAPAI COLLEGE,YAVAPAI COLLEGE - PRESCOTT VALLEY CENTER,"3800 North Glassford Hill Road, Prescott Valley, AZ 86314",34.5985174,-112.342266,POINT (-1411807.631179414 -472266.4856210088),559,"6955 Panther Path
# A, Prescott Valley, AZ 86314-2252",34.5977995,-112.34337,124.64883040911818,0.07745319236230301
108500,108504,AR,UNIVERSITY OF ARKANSAS AT MONTICELLO,UNIVERSITY OF ARKANSAS AT MONTICELLO - AHEOTA PROGRAM AT SEACBEC,"800 North Walnut, Warren, AR 716710921",33.6259307,-92.0659103,POINT (346262.00377963873 -699867.0508234132),907,"228 Scoby Dr, Warren, AR 71671-2050",33.6268981,-92.0716329,515.1313103572081,0.3200877564754385
108500,108501,AR,UNIVERSITY OF ARKANSAS AT MONTICELLO,UNIVERSITY OF ARKANSAS AT MONTICELLO - COLLEGE OF TECHNOLOGY MCGEHEE,"1609 East Ash Street, McGehee, AR 716540747",33.6432189,-91.3863601,POINT (405928.2319144296 -695141.2069227971),919,"800 S 1st St, McGehee, AR 71654-2507",33.6209255,-91.3920394,2522.7257419953157,1.5675491019914423
108500,108500,AR,UNIVERSITY OF ARKANSAS AT MONTICELLO,UNIVERSITY OF ARKANSAS AT MONTICELLO,"346 University Dr, Monticello, AR 71656",33.5909119,-91.811151,POINT (368848.3065476379 -702745.5575938034),812,"250 University Dr, Monticello, AR 71655-8891",33.5909571,-91.8072717,341.7482788757144,0.21235253549005953
108500,108502,AR,UNIVERSITY OF ARKANSAS AT MONTICELLO,UNIVERSITY OF ARKANSAS AT MONTICELLO - COLLEGE OF TECHNOLOGY CROSSETT,"1326 Highway 52 West, Crossett, AR 716354853",33.1736014,-91.9173283,POINT (361582.67732225923 -749408.5185105964),949,"500 Main St, Crossett, AR 71635-2932",33.128803,-91.9618764,6346.011181738914,3.9432285339485618
109100,109103,AR,ARKANSAS STATE UNIVERSITY - BEEBE,ARKANSAS STATE UNIVERSITY - BEEBE - SEARCY CAMPUS,"1800 East Moore Avenue, Searcy, AR 72143",35.2550145,-91.7153379,POINT (368583.68625286367 -517958.3529406394),846,"610 N Moss Ave, Searcy, AR 72143-4704",35.2528066,-91.7182826,352.45168840331155,0.21900332582922702
109100,109102,AR,ARKANSAS STATE UNIVERSITY - BEEBE,ARKANSAS STATE UNIVERSITY - BEEBE - LITTLE ROCK AIR FORCE BASE CENTER,"1490 Vandenberg Blvd, Suite 115, Jacksonville, AR 72099",34.8889544,-92.1079783,POINT (336566.81117498333 -560051.2038091236),767,"213 W Main St, Jacksonville, AR 72076-4504",34.8667761,-92.1123869,2489.8188080138666,1.547101681190514
109100,109101,AR,ARKANSAS STATE UNIVERSITY - BEEBE,ARKANSAS STATE UNIVERSITY - BEEBE - HEBER SPRINGS CAMPUS,"101 River Crest, Heber Springs, AR 72543",35.4816157,-91.9835979,POINT (344412.3361115914 -493895.321985426),722,"505 S 11th St, Heber Springs, AR 72543-4260",35.4877456,-92.0409818,4968.890709527526,3.087525544276131
109100,109100,AR,ARKANSAS STATE UNIVERSITY - BEEBE,ARKANSAS STATE UNIVERSITY - BEEBE - MAIN CAMPUS,"1000 Iowa Street, Beebe, AR 72012",35.0704545,-91.8951177,POINT (354053.1699029703 -539126.7190911646),883,"1201 W Center St, Beebe, AR 72012-3103",35.0675266,-91.8973837,379.1294573417583,0.23558012292074182
110400,110402,AR,PHILLIPS COMMUNITY COLLEGE OF THE UNIVERSITY OF ARKANSAS,PHILLIPS COMMUNITY COLLEGE OF THE UNIVERSITY OF ARKANSAS - STUTTGART CMAPUS,"2807 Highway 165 South, Stuttgart, AR 72160",34.472997,-91.5399926,POINT (387909.2165863252 -603884.6337334546),822,"1201 S Main St, Stuttgart, AR 72160-5307",34.4918458,-91.5522489,2347.1005099947092,1.458420642196267
110400,110400,AR,PHILLIPS COMMUNITY COLLEGE OF THE UNIVERSITY OF ARKANSAS,PHILLIPS COMMUNITY COLLEGE OF THE UNIVERSITY OF ARKANSAS - HELENA-WEST HELENA CAMPUS,"1000 Campus Drive, Helena, AR 72342",34.5447935,-90.6176778,POINT (467570.7993135787 -591592.7672947964),879,"125 Hickory Hills Dr
Asu/Abc Dual, Helena, AR 72342-2301",34.5363008,-90.6183328,943.8320386599427,0.586470039133922
110400,110400,AR,PHILLIPS COMMUNITY COLLEGE OF THE UNIVERSITY OF ARKANSAS,PHILLIPS COMMUNITY COLLEGE OF THE UNIVERSITY OF ARKANSAS - HELENA-WEST HELENA CAMPUS,"1000 Campus Drive, Helena, AR 72342",34.5447935,-90.6176778,POINT (467570.7993135787 -591592.7672947964),878,"125 Hickory Hills Dr, Helena, AR 72342-2301",34.5363008,-90.6183328,943.8320386599427,0.586470039133922
110400,110401,AR,PHILLIPS COMMUNITY COLLEGE OF THE UNIVERSITY OF ARKANSAS,PHILLIPS COMMUNITY COLLEGE OF THE UNIVERSITY OF ARKANSAS - DEWITT CAMPUS,"1210 Ricebelt Hwy 165S, DeWitt, AR 72042",34.2726817,-91.3494298,POINT (405605.2614410424 -625246.0272050115),822,"1201 S Main St, Stuttgart, AR 72160-5307",34.4918458,-91.5522489,30054.55152342079,18.675032512266355
111100,111101,CA,ALLAN HANCOCK COLLEGE,ALLAN HANCOCK COLLEGE - LOMPOC CAMPUS,"One Hancock Drive, Lompoc, CA 93436",34.6812913,-120.4603785,POINT (-2096579.1695241404 -306590.35566147114),1328,"602 E Central Ave, Lompoc, CA 93436-2936",34.6601661,-120.4514642,2467.852352963725,1.5334523588267797
111100,,CA,ALLAN HANCOCK COLLEGE,ALLAN HANCOCK COLLEGE - SANTA YNEZ VALLEY CENTER,"2975 East Hwy 246, Santa Ynez, CA 93460",34.6089277,-120.1004616,POINT (-2068563.7154530396 -322576.60738976416),1429,"595 2nd St, Buellton, CA 93427-6801",34.6214075,-120.2061918,9285.028994533202,5.76944953629131
111100,111100,CA,ALLAN HANCOCK COLLEGE,ALLAN HANCOCK COLLEGE - SANTA MARIA CAMPUS,"800 South College Drive, Santa Maria, CA 93454",34.9438546,-120.4214156,POINT (-2085590.9946459024 -279404.2271105927),1437,"1002 Sierra Madre Ave, Santa Maria, CA 93454-6337",34.9399521,-120.4205039,440.0553077124431,0.27343769120364764
111300,,CA,ANTELOPE VALLEY COLLEGE,ANTELOPE VALLEY COLLEGE - PALMDALE CENTER,"2301 East Palmdale Blvd, Palmdale, CA 93550",34.581179,-118.086594,POINT (-1900025.3631231159 -369504.77251817146),2375,"2320 E Avenue R, Palmdale, CA 93550-5419",34.5720052,-118.0865714,1017.6787260553966,0.632356243323613
111300,111300,CA,ANTELOPE VALLEY COLLEGE,ANTELOPE VALLEY COLLEGE - MAIN CAMPUS,"3041 West Ave K, Lancaster, CA 93536",34.6761685,-118.1853732,POINT (-1905808.5347705677 -357210.7644366603),2088,"540 W Lancaster Blvd, Lancaster, CA 93534-2544",34.6978535,-118.1384631,4727.254051877422,2.9373794862238416
111800,,CA,BAKERSFIELD COLLEGE,BAKERSFIELD COLLEGE - DELANO CAMPUS,"1450 Timmons Ave., Delano, CA 93215",35.7726202,-119.2715057,POINT (-1966321.430290571 -216218.32485215456),1323,"615 14th Ave, Delano, CA 93215-2007",35.7738962,-119.2510611,1752.1821389500649,1.0887555046963637
111800,,CA,BAKERSFIELD COLLEGE,BAKERSFIELD COLLEGE - WEILL INSTITUTE,"2100 Chester Ave., Bakersfield, CA 93301",35.3784574,-119.0181741,POINT (-1956330.6322311172 -264006.25231409114),1650,"1130 17th St, Bakersfield, CA 93301-4607",35.3745966,-119.0149949,508.0079141623837,0.31566148328908156
111800,,CA,BAKERSFIELD COLLEGE,BAKERSFIELD COLLEGE - SOUTHWEST,"9400 Camino Media, Bakersfield, CA 93311",35.3433932,-119.1063616,POINT (-1964642.014530222 -265870.7671377977),2445,"5005 Business Park N, Bakersfield, CA 93309-1652",35.360993,-119.0580393,4588.872540388854,2.8513932014465855
111800,111800,CA,BAKERSFIELD COLLEGE,BAKERSFIELD COLLEGE - MAIN CAMPUS,"1801 Panorama Drive, Bakersfield, CA 93305",35.408,-118.9716483,POINT (-1951641.6771350696 -261832.57552672504),1527,"1801 Panorama Dr, Bakersfield, CA 93305-1219",35.408,-118.9716483,0.0,0.0
111800,,CA,BAKERSFIELD COLLEGE,BAKERSFIELD COLLEGE - SHAFTER LEARNING CENTER,"236 James Street, Shafter, CA 93263",35.5038231,-119.2775182,POINT (-1974369.8242796494 -244940.05902086734),2444,"459 E Euclid Ave, Shafter, CA 93263-2777",35.497938,-119.2697744,931.3095539672071,0.5786889278906232
111900,,CA,BARSTOW COMMUNITY COLLEGE,BARSTOW COMMUNITY COLLEGE - FORT IRWIN CAMPUS,"285 Barstow Road, Fort Irwin, CA 92310",35.2699355,-116.6764413,POINT (-1763661.5732506178 -323603.6752057742),1126,"1121 W Main St, Barstow, CA 92311-2547",34.896193,-117.0405776,52019.017901936524,32.323119172741514
111900,111900,CA,BARSTOW COMMUNITY COLLEGE,BARSTOW COMMUNITY COLLEGE - MAIN CAMPUS,"2700 Barstow Road, Barstow, CA 92311",34.8709476,-117.025271,POINT (-1803032.3562587928 -359868.3909295446),1126,"1121 W Main St, Barstow, CA 92311-2547",34.896193,-117.0405776,3097.9418853581724,1.9249718427869817
112400,112400,CA,CABRILLO COLLEGE,CABRILLO COLLEGE - MAIN CAMPUS,"6500 Soquel Drive, Aptos, CA 95003",36.9874415,-121.9289337,POINT (-2147144.5320407315 -26191.54706965705),1998,"6500 Soquel Dr
Ste 1700, Aptos, CA 95003-3119",36.99045,-121.92895,333.8774354275587,0.20746182011276562
112400,112401,CA,CABRILLO COLLEGE,CABRILLO COLLEGE - WATSONVILLE CENTER,"318 Union Street, Watsonville, CA 95076",36.910592,-121.755302,POINT (-2135537.754405223 -38466.80039050848),1999,"120 W Beach St, Watsonville, CA 95076-4556",36.9090819,-121.7589063,346.16193804283625,0.2150950561488633
116100,116100,CA,CERRITOS COMMUNITY COLLEGE,CERRITOS COMMUNITY COLLEGE,"11110 Alondra Boulevard, Norwalk, CA 90650",33.8861477,-118.0962259,POINT (-1919388.4322528907 -444135.7537068062),2603,"10932 Excelsior Dr, Norwalk, CA 90650-4631",33.8939803,-118.1017202,993.5356534173959,0.6173544334942659
116200,116200,CA,CHABOT COLLEGE,CHABOT COLLEGE,"25555 Hesperian Boulevard, Hayward, CA 94545",37.6394062,-122.1053599,POINT (-2140863.316598105 47384.260317958644),1031,"25555 Hesperian Blvd, Hayward, CA 94545-2447",37.6394062,-122.1053599,0.0,0.0
116300,116300,CA,CHAFFEY COMMUNITY COLLEGE,CHAFFEY COMMUNITY COLLEGE - MAIN CAMPUS,"5885 Haven Avenue, Rancho Cucamonga, CA 91737",34.1470426,-117.5710921,POINT (-1867841.5974523856 -426962.65103970387),1117,"9324 San Bernardino Rd, Rancho Cucamonga, CA 91730-2627",34.109203,-117.6017671,4981.003976634718,3.0950523795004163
116300,116307,CA,CHAFFEY COMMUNITY COLLEGE,CHAFFEY COMMUNITY COLLEGE - CHINO CAMPUS,"5897 College Park, Chino, CA 91710",33.9943964,-117.6759808,POINT (-1880749.7047110207 -441256.1728748642),1125,"5585 Riverside Dr, Chino, CA 91710-4320",34.018812,-117.6834247,2785.5876095594012,1.7308838940334703
116300,116302,CA,CHAFFEY COMMUNITY COLLEGE,CHAFFEY COMMUNITY COLLEGE - FONTANA CAMPUS,"16855 Merrill Avenue, Fontana, CA 92335",34.0918788,-117.4366582,POINT (-1857847.2960018087 -435665.3891361106),1143,"9315 Citrus Ave, Fontana, CA 92335-5563",34.083892,-117.4531152,1690.4014548539574,1.0503667673623274
116600,116600,CA,CITRUS COLLEGE,CITRUS COLLEGE,"1000 West Foothill Boulevard, Glendora, CA 91741",34.1333468,-117.884956,POINT (-1894858.2590951684 -421944.91597721877),2040,"350 W Mauna Loa Ave, Glendora, CA 91740-4354",34.1242446,-117.8682533,1775.3636661781331,1.1031598379079508
117600,117600,CA,WEST HILLS COMMUNITY COLLEGE,WEST HILLS COMMUNITY COLLEGE - COALINGA,"300 Cherry Lane, Coalinga, CA 93210",36.1478043,-120.3570364,POINT (-2044871.1853470565 -152063.62734799157),1469,"16641 Palmer St, Huron, CA 93234",36.2104047,-120.0960089,23231.413175046295,14.435330901936624
117600,117602,CA,WEST HILLS COMMUNITY COLLEGE,WEST HILLS COMMUNITY COLLEGE - NORTH DISTRICT CENTER,"1511 9th Street, Firebaugh, CA 93622",36.8613248,-120.4585809,POINT (-2032148.6452356277 -73444.32995599888),1348,"1777 Thomas Conboy Ave, Firebaugh, CA 93622-2104",36.8681997,-120.4608085,785.603142377051,0.4881511612042242
117600,,CA,WEST HILLS COMMUNITY COLLEGE,WEST HILLS COMMUNITY COLLEGE - LEMOORE,"555 College Ave., Lemoore, CA 93245",36.2910374,-119.8233389,POINT (-1996990.6695784156 -148586.78152781504),1055,"573 W Bush St, Lemoore, CA 93245-3545",36.2975298,-119.787568,3117.3324876867505,1.9370206044740903
117800,117801,CA,COLLEGE OF MARIN,COLLEGE OF MARIN - INDIAN VALLEY CAMPUS,"1800 Ignacio Boulevard, Novato, CA 94949",38.0776393,-122.5838184,POINT (-2164968.6947436943 105326.48281007762),1151,"1320 Lynwood Dr, Novato, CA 94947-4629",38.0877527,-122.5630088,2053.047462075395,1.2757045492296208
117800,117800,CA,COLLEGE OF MARIN,COLLEGE OF MARIN - KENTFIELD CAMPUS,"835 College Avenue, Kentfield, CA 94904",37.9512299,-122.5490734,POINT (-2166258.6839572033 91062.56032625685),1148,"199 Greenfield Ave, San Rafael, CA 94901-2670",37.975339,-122.5501561,2677.4958288192515,1.6637187753639069
118100,118100,CA,COLLEGE OF SAN MATEO,COLLEGE OF SAN MATEO,"1700 West Hillsdale Boulevard, San Mateo, CA 94402",37.5350511,-122.335123,POINT (-2162486.204970965 41716.98909409805),1638,"65 Tower Rd, San Mateo, CA 94402-4000",37.5141049,-122.3340458,2326.4969236605925,1.445618167191472
118200,118200,CA,COLLEGE OF THE DESERT,COLLEGE OF THE DESERT - MAIN CAMPUS,"43-500 Monterey Avenue, Palm Desert, CA 92260",33.7308403,-116.3898328,POINT (-1777592.9105114879 -495584.53407790296),1985,"44911 Cabrillo Ave, Palm Desert, CA 92260-3725",33.722216,-116.3711104,1903.8509291690004,1.182998121699898
118200,118204,CA,COLLEGE OF THE DESERT,COLLEGE OF THE DESERT - PALM SPRINGS CAMPUS,"1300 E. Baristo Road, Palm Springs, CA 92262",33.8203464,-116.5314705,POINT (-1787508.5156457196 -483130.3644310906),1958,"777 E Tachevah Dr, Palm Springs, CA 92262-4903",33.8374563,-116.5380166,1982.9361163554308,1.2321393787502428
118200,,CA,COLLEGE OF THE DESERT,COLLEGE OF THE DESERT - DESERT HOT SPRINGS,"11625 West Drive, Desert Hot Springs, CA 92240",33.9641903,-116.5116473,POINT (-1782243.4122348358 -467968.76854299864),1959,"14250 West Dr, Desert Hot Springs, CA 92240-5655",33.9454933,-116.5084962,2092.215150910875,1.3000422227385038
118200,118203,CA,COLLEGE OF THE DESERT,COLLEGE OF THE DESERT - INDIO CAMPUS,"45524 Oasis Street, Indio, CA 92201",33.7179658,-116.2204023,POINT (-1763382.1260354307 -500275.98000221973),1946,"83391 Dillon Ave, Indio, CA 92201-3321",33.7255706,-116.2116692,1140.6691897326305,0.7087789743725583
118200,118205,CA,COLLEGE OF THE DESERT,COLLEGE OF THE DESERT - MECCA/THERMAL CAMPUS,"61120 Buchanan Street, Mecca, CA 92254",33.6050325,-116.0950289,POINT (-1755373.4147008376 -514921.3438592132),1951,"65250 Coahuilla St, Mecca, CA 92254-6602",33.5753132,-116.0756965,3710.202925729624,2.305413215403061
118500,118500,CA,COLLEGE OF THE REDWOODS,COLLEGE OF THE REDWOODS - MAIN CAMPUS,"7351 Tompkins Hill Road, Eureka, CA 95501",40.6952404,-124.1980561,POINT (-2203634.230876864 421642.5544162386),1885,"7351 Tompkins Hill Rd, Eureka, CA 95501-9302",40.6952404,-124.1980561,0.0,0.0
118500,118506,CA,COLLEGE OF THE REDWOODS,COLLEGE OF THE REDWOODS - DEL NORTE EDUCATION CENTER,"883 West Washington Boulevard, Crescent City, CA 95531",41.76938,-124.2110246,POINT (-2168194.9211756 535554.2582806809),1888,"860 Small Ave, Crescent City, CA 95531-2145",41.7692744,-124.2125183,117.25097795868753,0.07285637996518303
118500,118505,CA,COLLEGE OF THE REDWOODS,COLLEGE OF THE REDWOODS - KLAMATH/TRINITY CAMPUS,"65 Orchard St, Hoopa, CA 95546",41.0490133,-123.6773471,POINT (-2152443.7721112175 446618.0718884856),2401,"47 Orchard Road, Hoopa, CA 95546-9631",41.0490133,-123.6773471,0.0,0.0
118500,,CA,COLLEGE OF THE REDWOODS,COLLEGE OF THE REDWOODS - EUREKA DOWNTOWN SITE,"525 D Street, Eureka, CA 95501",40.8011287,-124.1676924,POINT (-2197753.247035527 432106.38350288133),1880,"914 B St, Eureka, CA 95501-1609",40.7978787,-124.1699119,401.5374828971935,0.2495038244758072
118600,118600,CA,COLLEGE OF THE SEQUOIAS,COLLEGE OF THE SEQUOIAS - MAIN CAMPUS,"915 South Mooney Boulevard, Visalia, CA 93277",36.3228336,-119.3155511,POINT (-1954477.8983272437 -156209.40164660432),2219,"528 S Chinowth St, Visalia, CA 93277-1648",36.3259049,-119.3358788,1756.1807257668904,1.0912401113539991
118600,118601,CA,COLLEGE OF THE SEQUOIAS,COLLEGE OF THE SEQUOIAS - HANFORD EDUCATIONAL CENTER,"925 North 13th Avenue, Hanford, CA 93230",36.3329315,-119.690022,POINT (-1984872.591197839 -147014.70171904503),1060,"10918 12th Ave, Hanford, CA 93230-5506",36.3144993,-119.6740208,2454.0670576668786,1.5248865734528345
118600,118602,CA,COLLEGE OF THE SEQUOIAS,COLLEGE OF THE SEQUOIAS - TULARE COLLEGE CENTER,"4999 East Bardsley Avenue, Tulare, CA 93274",36.1957289,-119.2815594,POINT (-1955262.868502563 -170583.73652723758),2226,"1367 E Tulare Ave, Tulare, CA 93274-3066",36.2105648,-119.326895,4186.219740229461,2.6011963509538427
118700,118700,CA,COLLEGE OF THE SISKIYOUS,COLLEGE OF THE SISKIYOUS - WEED CAMPUS,"800 College Avenue, Weed, CA 96094",41.4126153,-122.3893698,POINT (-2043623.2467322808 455511.0346054877),1899,"800 College Ave, Weed, CA 96094-2806",41.4126153,-122.3893698,0.0,0.0
118700,118701,CA,COLLEGE OF THE SISKIYOUS,COLLEGE OF THE SISKIYOUS - YREKA CAMPUS,"2001 Campus Drive, Yreka, CA 96097",41.7068782,-122.6483145,POINT (-2053660.4174759495 492647.0329844785),1904,"1273 S Main St, Yreka, CA 96097-3433",41.7181353,-122.6399278,1411.7631453342174,0.8772289487730512
119000,119000,CA,CONTRA COSTA COLLEGE,CONTRA COSTA COLLEGE,"2600 Mission Bell Drive, San Pablo, CA 94806",37.9688909,-122.3400902,POINT (-2149128.487038359 87981.62267730656),2207,"2600 Mission Bell Dr, San Pablo, CA 94806-3166",37.9688909,-122.3400902,0.0,0.0
119000,119000,CA,CONTRA COSTA COLLEGE,CONTRA COSTA COLLEGE,"2600 Mission Bell Drive, San Pablo, CA 94806",37.9688909,-122.3400902,POINT (-2149128.487038359 87981.62267730656),2153,"2600 Mission Bell Dr
Rm 118, San Pablo, CA 94806-3166",37.9688909,-122.3400902,0.0,0.0
119100,119101,CA,DIABLO VALLEY COLLEGE,DIABLO VALLEY COLLEGE - SAN RAMON CAMPUS,"1690 Watermill Road, San Ramon, CA 94582",37.7547547,-121.9097087,POINT (-2121657.767514328 55081.102620304264),2774,"7197 Amador Valley Blvd, Dublin, CA 94568-2047",37.7112539,-121.9247556,4987.240847562009,3.0989277914243374
119100,119100,CA,DIABLO VALLEY COLLEGE,DIABLO VALLEY COLLEGE - PLEASANT HILL CAMPUS,"321 Golf Club Road, Pleasant Hill, CA 94523",37.9683321,-122.0729116,POINT (-2127950.3948251763 81638.6629334456),2048,"1187 Meadow Ln
B, Concord, CA 94520-3745",37.9593428,-122.0423262,2720.5191693176234,1.690452239743413
119100,119100,CA,DIABLO VALLEY COLLEGE,DIABLO VALLEY COLLEGE - PLEASANT HILL CAMPUS,"321 Golf Club Road, Pleasant Hill, CA 94523",37.9683321,-122.0729116,POINT (-2127950.3948251763 81638.6629334456),2046,"1187A Meadow Ln, Concord, CA 94520-3745",37.9593428,-122.0423262,2720.5191693176234,1.690452239743413
119100,119100,CA,DIABLO VALLEY COLLEGE,DIABLO VALLEY COLLEGE - PLEASANT HILL CAMPUS,"321 Golf Club Road, Pleasant Hill, CA 94523",37.9683321,-122.0729116,POINT (-2127950.3948251763 81638.6629334456),2047,"1187 Meadow Ln, Concord, CA 94520-3745",37.9593428,-122.0423262,2720.5191693176234,1.690452239743413
119200,119203,CA,CUESTA COLLEGE,CUESTA COLLEGE - NORTH COUNTY CAMPUS,"2800 Buena Vista Drive, Paso Robles, CA 93446",35.6504292,-120.6706319,POINT (-2085343.6907540516 -198135.93556169956),1612,"2915 Union Rd, Paso Robles, CA 93446-7312",35.6421538,-120.6562546,1535.2198027824852,0.9539413592013175
119200,119200,CA,CUESTA COLLEGE,CUESTA COLLEGE - MAIN CAMPUS,"Highway 1, San Luis Obispo, CA 93403",35.2712111,-120.6725543,POINT (-2096778.5736007027 -238626.290454216),2709,"Highway 1, Bldg 4000, Rm 4021, San Luis Obispo, CA 93405",35.2713871,-120.6725029,20.020816233954065,0.012440358452856608
119300,119300,CA,CYPRESS COLLEGE,CYPRESS COLLEGE,"9200 Valley View Street Cypress, CA 90630",33.8282829,-118.0232288,POINT (-1914711.5960174175 -451905.1776437873),2667,"5600 Crescent Ave, Buena Park, CA 90620-3406",33.8386225,-118.033244,1445.1145279134457,0.8979525371290697
119700,119700,CA,EL CAMINO COLLEGE,EL CAMINO COLLEGE,"16007 Crenshaw Boulevard, Torrance, CA 90506",33.8851577,-118.3282067,POINT (-1939161.604865096 -439320.3558535033),2559,"16007 Crenshaw Blvd, Torrance, CA 90506-0001",33.8840988,-118.3302172,211.90554815130994,0.13167200309648525
119900,119902,CA,FOOTHILL COLLEGE,FOOTHILL COLLEGE - SUNNYVALE CENTER,"1070 Innovation Way, Sunnyvale, CA 94089",37.4055105,-122.0272288,POINT (-2141961.39578407 20644.157858731312),1499,"1290 Ridder Park Dr, San Jose, CA 95131-2304",37.3833101,-121.900106,10890.147439580101,6.7668238981722375
119900,119900,CA,FOOTHILL COLLEGE,FOOTHILL COLLEGE - MAIN CAMPUS,"12345 El Monte Road, Los Altos Hills, CA 94022",37.3679043,-122.1138718,POINT (-2150077.302397617 18685.604302557374),1634,"1019 Laurel Ave, East Palo Alto, CA 94303-1421",37.4692382,-122.1527176,11704.09007869872,7.272584406254175
120100,120100,CA,FULLERTON COLLEGE,FULLERTON COLLEGE,"321 East Chapman Avenue, Fullerton, CA 92832",33.8765758,-117.918401,POINT (-1904496.7364734465 -448905.6043645847),2663,"1231 E Chapman Ave, Fullerton, CA 92831-3908",33.8743138,-117.905173,1187.4172483804036,0.7378268713093059
120200,120200,CA,GAVILAN COLLEGE,GAVILAN COLLEGE - MAIN CAMPUS,"5055 Santa Teresa Boulevard, Gilroy, CA 95020",36.9666134,-121.562,POINT (-2118211.2812356 -37016.811932405115),1078,"305 Bloomfield Ave, Gilroy, CA 95020-9516",36.96385,-121.5403789,1841.1975509260326,1.1440671173633683
120200,120201,CA,GAVILAN COLLEGE,GAVILAN COLLEGE - HOLLISTER BRIGGS SITE,"365 Fourth Street, Hollister, CA 95023",36.8522555,-121.4028468,POINT (-2108868.4622296877 -52911.850305277054),1081,"1011 Line Street, Hollister, CA 95023-4589",36.8451039,-121.4123578,1126.8717691372706,0.7002056546874196
120200,120204,CA,GAVILAN COLLEGE,GAVILAN COLLEGE - SAN MARTIN AIRPORT,"13021 Murphy Avenue, San Martin, CA 95046",37.0819131,-121.598622,POINT (-2117610.6096681976 -23871.061509368592),1548,"245 Farrell Avenue, Gilroy, CA 95020",37.0307464,-121.5855399,5783.438694342343,3.593662196735032
120200,120205,CA,GAVILAN COLLEGE,GAVILAN COLLEGE - COYOTE VALLEY CENTER,"560 Bailey Ave, San Jose, CA 95141",37.1909381,-121.7498005,POINT (-2126400.7272931105 -8722.552563000832),1576,"5398 Monterey Hwy, San Jose, CA 95111-4204",37.258333,-121.804523,8769.321442130195,5.449003719608855
120200,120205,CA,GAVILAN COLLEGE,GAVILAN COLLEGE - COYOTE VALLEY CENTER,"560 Bailey Ave, San Jose, CA 95141",37.1909381,-121.7498005,POINT (-2126400.7272931105 -8722.552563000832),1097,"5398 Monterey Road, San Jose, CA 95111-4204",37.258333,-121.804523,8769.321442130195,5.449003719608855
120300,,CA,GLENDALE COMMUNITY COLLEGE,GLENDALE COMMUNITY COLLEGE - GARFIELD CAMPUS,"1122 East Garfield Avenue, Glendale, CA 91205",34.1358942,-118.2410928,POINT (-1925012.6804809372 -414189.98057025543),1685,"1122 E Garfield Ave, Glendale, CA 91205-2526",34.1358942,-118.2410928,0.0,0.0
120300,120300,CA,GLENDALE COMMUNITY COLLEGE,GLENDALE COMMUNITY COLLEGE - MAIN CAMPUS,"1500 North Verdugo Road, Glendale, CA 91208",34.1674122,-118.2286772,POINT (-1923113.4105065528 -411060.61076289095),1688,"1500 N Verdugo Rd, Glendale, CA 91208-2809",34.1674122,-118.2286772,0.0,0.0
120300,,CA,GLENDALE COMMUNITY COLLEGE,GLENDALE COMMUNITY COLLEGE - PROFESSIONAL DEVELOPMENT CENTER,"2340 Honolulu Avenue, Montrose, CA 91020",34.2057547,-118.2298117,POINT (-1922180.1458479865 -406909.965162247),1688,"1500 N Verdugo Rd, Glendale, CA 91208-2809",34.1674122,-118.2286772,4254.273360407607,2.6434829100600035
120600,120600,CA,GOLDEN WEST COLLEGE,GOLDEN WEST COLLEGE,"15744 Golden West Street, Huntington Beach, CA 92647",33.7325619,-118.0046404,POINT (-1915671.5078556524 -462604.296301004),2644,"17175 Emerald Ln, Huntington Beach, CA 92647-8702",33.7128389,-117.9947973,2352.5990586402086,1.461837281923696
120800,120800,CA,GROSSMONT COLLEGE,GROSSMONT COLLEGE,"8800 Grossmont College Drive, El Cajon, CA 92020",32.8167823,-117.0062922,POINT (-1853602.8270364052 -582039.0975004752),1825,"8800 Grossmont College Dr, El Cajon, CA 92020-1765",32.8164953,-117.0063045,31.847513803961824,0.01978912762216271
120900,,CA,HARTNELL COMMUNITY COLLEGE,HARTNELL COMMUNITY COLLEGE - SOLEDAD CENTER,"1505 Metz Road, Soledad, CA 93960",36.4270133,-121.3149185,POINT (-2114727.0953061525 -100320.34170214235),1327,"160 Main St, Soledad, CA 93960-3024",36.4273181,-121.3285115,1150.8147609349674,0.7150831400464831
120900,120900,CA,HARTNELL COMMUNITY COLLEGE,HARTNELL COMMUNITY COLLEGE - MAIN CAMPUS,"411 Central Avenue, Salinas, CA 93901",36.6736617,-121.6684362,POINT (-2135851.8422707417 -65755.78313153119),1322,"342 Front St, Salinas, CA 93901-3608",36.6730751,-121.6492098,1622.5758687211032,1.0082219020427599
120900,120901,CA,HARTNELL COMMUNITY COLLEGE,HARTNELL COMMUNITY COLLEGE - KING CITY CENTER,"117 N Second St, King City, CA 93930",36.2139971,-121.1257059,POINT (-2105775.4186268435 -127445.4376371209),1339,"231 Lynn St, King City, CA 93930-2868",36.213714,-121.1265563,78.72591662331894,0.04891801667220864
120900,120902,CA,HARTNELL COMMUNITY COLLEGE,HARTNELL COMMUNITY COLLEGE - ALISAL CAMPUS,"1752 East Alisal Street, Salinas, CA 93901",36.6709712,-121.6053556,POINT (-2130825.562696791 -67522.49917961723),2705,"1437 Del Monte Ave, Salinas, CA 93905-1902",36.6827609,-121.6052442,1308.3559146861949,0.8129746745793285
121400,121400,CA,IMPERIAL VALLEY COLLEGE,IMPERIAL VALLEY COLLEGE,"380 East Aten Road, Imperial, CA 92251",32.82587,-115.505147,POINT (-1723045.0151650908 -610579.3214710833),975,"280 S Fairfield Dr, El Centro, CA 92243-2636",32.79153,-115.5420868,5032.080744603636,3.1267900117088927
121700,121700,CA,LASSEN COLLEGE,LASSEN COLLEGE,"478-200 Highway 139, Susanville, CA 96130",40.429826,-120.63056,POINT (-1940093.2744619767 312103.7754228295),2369,"1400 Chestnut St
Ste C, Susanville, CA 96130-3784",40.4236672,-120.649357,1647.575042573254,1.023755668504219
121900,121900,CA,LONG BEACH CITY COLLEGE,LONG BEACH CITY COLLEGE - MAIN CAMPUS,"4901 East Carson Street, Long Beach, CA 90808",33.8327926,-118.134784,POINT (-1924097.844613012 -449064.84765305294),2323,"3701 E Willow St, Long Beach, CA 90815-1732",33.8046988,-118.1491255,3360.989423950664,2.088422005457294
121900,121901,CA,LONG BEACH CITY COLLEGE,LONG BEACH CITY COLLEGE - PACIFIC COAST CAMPUS,"1305 East Pacific Coast Highway, Long Beach, CA 90806",33.7900531,-118.1721129,POINT (-1928422.6938276002 -452874.74209416687),2320,"1761 Walnut Ave, Long Beach, CA 90813-2430",33.7889603,-118.1726075,128.76411484738398,0.08001031156010398
122300,122300,CA,LOS ANGELES CITY COLLEGE,LOS ANGELES CITY COLLEGE,"855 North Vermont Avenue, Los Angeles, CA 90029",34.0865467,-118.2930592,POINT (-1930748.6861733363 -418398.72441823245),2383,"1014 N Western Ave
Ste 650, Los Angeles, CA 90029-2310",34.0889631,-118.3089027,1411.6473863810456,0.8771570194943067
122400,122400,CA,LOS ANGELES HARBOR COLLEGE,LOS ANGELES HARBOR COLLEGE,"1111 Figueroa Place, Wilmington, CA 90744",33.7836063,-118.2838151,POINT (-1938116.693994546 -451193.685086125),2129,"334 Figueroa St, Wilmington, CA 90744-4804",33.7729555,-118.2783042,1276.7512205296287,0.7933364280909666
122600,122600,CA,LOS ANGELES PIERCE COLLEGE,LOS ANGELES PIERCE COLLEGE,"6201 Winnetka Avenue, Woodland Hills, CA 91371",34.1854252,-118.5734981,POINT (-1951844.033412098 -401775.86230948305),1681,"19451 Wyandotte St, Reseda, CA 91335-3518",34.2033934,-118.5570513,2456.913471994475,1.5266552533171744
122700,122700,CA,LOS ANGELES TRADE-TECHNICAL COLLEGE,LOS ANGELES TRADE-TECHNICAL COLLEGE,"400 West Washington Boulevard, Los Angeles, CA 90015",34.0325515,-118.2697468,POINT (-1930222.4518040458 -424703.96509033267),2138,"1500 S Grand Ave
STE 100, Los Angeles, CA 90015-3062",34.036028,-118.2658374,515.5956503225825,0.3203762839533266
122800,122800,CA,LOS ANGELES VALLEY COLLEGE,LOS ANGELES VALLEY COLLEGE,"5800 Fulton Avenue, Valley Glen, CA 91401",34.1752206,-118.4151579,POINT (-1938708.6536474563 -406260.6647531963),2080,"5944 Woodman Ave, Van Nuys, CA 91401-4435",34.1788458,-118.4308683,1430.313434804253,0.8887555642573949
123200,123202,CA,AMERICAN RIVER COLLEGE,AMERICAN RIVER COLLEGE - MCCLELLAN CENTER,"5146 Arnold Avenue, McClellan, CA 95652",38.6612093,-121.3836437,POINT (-2051992.8629848089 139649.4973073475),1311,"3708 Myrtle Ave, North Highlands, CA 95660-5204",38.6538267,-121.3779715,942.0461006331284,0.5853603086929384
123200,,CA,AMERICAN RIVER COLLEGE,AMERICAN RIVER COLLEGE - MATHER CENTER,"10150 Missile Way, Mather, CA 95655",38.5588193,-121.3149335,POINT (-2049706.4446229178 127172.56872676272),2721,"3351 Explorer Dr, Sacramento, CA 95827-2954",38.5658831,-121.3240048,1080.936360481117,0.6716627150448362
123200,123200,CA,AMERICAN RIVER COLLEGE,AMERICAN RIVER COLLEGE - MAIN CAMPUS,"4700 College Oak Drive, Sacramento, CA 95841",38.6507776,-121.3444463,POINT (-2049225.3320222907 137652.31929548297),1294,"3700 Garfield Ave, Carmichael, CA 95608-3042",38.6331916,-121.3374988,2033.4646235811074,1.263536337527034
123200,123201,CA,AMERICAN RIVER COLLEGE,AMERICAN RIVER COLLEGE - NATOMAS CENTER,"2421 Del Paso Road, Sacramento, CA 95835",38.6571777,-121.5174627,POINT (-2062649.938759597 142246.98434869148),1229,"2775 Millcreek Dr, Sacramento, CA 95833-1856",38.6161547,-121.5033204,4698.967347315848,2.919802942885951
123300,123302,CA,SACRAMENTO CITY COLLEGE,SACRAMENTO CITY COLLEGE - WEST SACRAMENTO CENTER,"1115 West Capitol Ave, West Sacramento, CA 95691",38.5810954,-121.5232441,POINT (-2065444.5657694084 134262.97421692227),1849,"1200 Anna St, West Sacramento, CA 95605-2006",38.5960132,-121.5318718,1800.733276566255,1.1189237829614147
123300,123301,CA,SACRAMENTO CITY COLLEGE,SACRAMENTO CITY COLLEGE - DAVIS CENTER,"1720 Jade Street, Davis, CA 95616",38.540842,-121.7721184,POINT (-2086294.7434692888 135652.87332903387),1853,"1400 E 8th St, Davis, CA 95616-2404",38.5528231,-121.7333539,3447.1042381374496,2.141931270217834
123300,123300,CA,SACRAMENTO CITY COLLEGE,SACRAMENTO CITY COLLEGE - MAIN CAMPUS,"3835 Freeport Boulevard, Sacramento, CA 95822",38.5415908,-121.4887605,POINT (-2063940.7338704893 129266.10202298994),1269,"2930 21st Ave, Sacramento, CA 95820-3719",38.5334776,-121.4765479,1347.2848151109608,0.8371639718487538
123700,123700,CA,MERCED COMMUNITY COLLEGE,MERCED COMMUNITY COLLEGE - MAIN CAMPUS,"3600 M Street, Merced, CA 95348",37.3336824,-120.4730031,POINT (-2019378.6841109393 -22587.267163781707),2691,"3600 M St, Merced, CA 95348-2806",37.3336824,-120.4730031,0.0,0.0
123700,123701,CA,MERCED COMMUNITY COLLEGE,MERCED COMMUNITY COLLEGE - LOS BANOS CAMPUS,"22240 Highway 152, Los Banos, CA 93635",37.0585632,-120.8946134,POINT (-2061557.1070027798 -42541.36034967551),2679,"805 Texas Ave, Los Banos, CA 93635-3453",37.0644141,-120.8607953,2909.093229535612,1.8076267283660994
123700,123703,CA,MERCED COMMUNITY COLLEGE,MERCED COMMUNITY COLLEGE - DELHI CENTER,"9384 Merced Avenue, Delhi, CA 95315",37.4251864,-120.7944669,POINT (-2042512.996070496 -5622.0959720192095),2688,"16881 Schendel Ave, Delhi, CA 95315-8003",37.4256621,-120.7889459,463.50831489913116,0.2880107142407908
123900,123901,CA,MIRACOSTA COLLEGE,MIRACOSTA COLLEGE - SAN ELIJO CAMPUS,"3333 Manchester Avenue, Cardiff, CA 92007",33.0174318,-117.2584082,POINT (-1870290.2874203317 -555222.2049510524),970,"2240 Encinitas Blvd
Ste H, Encinitas, CA 92024-4345",33.0383717,-117.2386297,2911.373041155723,1.8090433376305644
123900,,CA,MIRACOSTA COLLEGE,MIRACOSTA COLLEGE - COMMUNITY LEARNING CENTER,"1831 Mission Avenue, Oceanside, CA 92058",33.2026808,-117.3650531,POINT (-1874716.8446641054 -533042.4696527176),2071,"2017 Mission Ave, Oceanside, CA 92058-2324",33.2044108,-117.361923,337.123854144002,0.2094790511811036
123900,123900,CA,MIRACOSTA COLLEGE,MIRACOSTA COLLEGE - OCEANSIDE CAMPUS,"1 Barnard Drive, Oceanside, CA 92056",33.1900417,-117.3021629,POINT (-1869625.3095740585 -535700.7016154533),2315,"2020 Chestnut Ave, Carlsbad, CA 92008-2715",33.1621758,-117.3264122,3763.856673361273,2.33875210853694
124000,124000,CA,MODESTO JUNIOR COLLEGE,MODESTO JUNIOR COLLEGE - EAST CAMPUS,"435 College Avenue, Modesto CA 95350",37.6511684,-121.0091396,POINT (-2052939.5134005742 23358.98050612),2743,"500 Locust St, Modesto, CA 95351-2633",37.6402981,-121.014023,1272.9658186187983,0.7909842883925364
124000,,CA,MODESTO JUNIOR COLLEGE,MODESTO JUNIOR COLLEGE - WEST CAMPUS,"2201 Blue Gum Ave, Modesto, CA 95358",37.6627211,-121.0354933,POINT (-2054699.3258445302 25188.202829134334),2764,"2201 Blue Gum Ave
# 4, Modesto, CA 95358-1052",37.6627211,-121.0354933,0.0,0.0
124200,124200,CA,MONTEREY PENINSULA COLLEGE,MONTEREY PENINSULA COLLEGE - MAIN CAMPUS,"980 Fremont Street, Monterey, CA 93940",36.5902623,-121.8836995,POINT (-2155878.50190246 -69561.42213471507),1322,"342 Front St, Salinas, CA 93901-3608",36.6730751,-121.6492098,21815.450427277567,13.555492441191918
124200,,CA,MONTEREY PENINSULA COLLEGE,MONTEREY PENINSULA COLLEGE - PUBLIC SAFETY TRAINING CENTER AT SEASIDE,"2642 Colonel Durham St., Seaside, CA 93955",36.6458982,-121.7997173,POINT (-2147344.20962873 -65622.27516781143),1322,"342 Front St, Salinas, CA 93901-3608",36.6730751,-121.6492098,13047.466830449479,8.10732002011346
124200,,CA,MONTEREY PENINSULA COLLEGE,MONTEREY PENINSULA COLLEGE - EDUCATION CENTER AT MARINA,"289 12th Street, Marina, CA 93933",36.6686248,-121.8035202,POINT (-2146946.078181148 -63111.32782141115),2700,"10301 Seymour St, Castroville, CA 95012-2606",36.7723307,-121.7577866,12136.639518793463,7.541358167547437
124500,124500,CA,MOUNT SAN ANTONIO COLLEGE,MOUNT SAN ANTONIO COLLEGE,"1100 North Grand Avenue, Walnut, CA 91789",34.0482035,-117.845125,POINT (-1893723.3607034383 -431947.33712722117),2204,"1100 N Grand Ave
Bldg 70, Walnut, CA 91789-1341",34.0482035,-117.845125,0.0,0.0
124600,124600,CA,MT. SAN JACINTO COLLEGE,MT. SAN JACINTO COLLEGE - MAIN CAMPUS,"1499 North State Street, San Jacinto, CA 92583",33.8066222,-116.96941,POINT (-1825313.2098630087 -475913.32483230176),1945,"257 S Grand Army Ave, San Jacinto, CA 92583-3322",33.7866622,-116.9655691,2239.499127877738,1.3915602431038596
124600,124601,CA,MT. SAN JACINTO COLLEGE,MT. SAN JACINTO COLLEGE - MENIFEE VALLEY CAMPUS,"28237 La Piedra Road, Menifee, CA 92584",33.6755248,-117.166921,POINT (-1845550.044754132 -486079.05097551405),1932,"25890 Antelope Rd, Romoland, CA 92585-9660",33.7449566,-117.1707517,7708.540554316471,4.789865034645464
124600,,CA,MT. SAN JACINTO COLLEGE,MT. SAN JACINTO COLLEGE - TEMECULA VALLE CAMPUS,"41888 Motor Car Parkway, Temecula, CA 92591",33.5166726,-117.1513719,POINT (-1848280.401859233 -503539.1090801424),1974,"41951 Moraga Rd, Temecula, CA 92591-4742",33.5105605,-117.1420511,1065.4122427192883,0.662016475482736
124600,,CA,MT. SAN JACINTO COLLEGE,MT. SAN JACINTO COLLEGE - SAN GORGONIO CAMPUS,"3144 W. Westward Avenue, Banning, CA 92220",33.9166616,-116.9110247,POINT (-1817538.825795539 -465199.43773500685),1963,"671 N Florida St
Ste B, Banning, CA 92220-5678",33.9313701,-116.8710189,3868.5481711283023,2.403804389321551
124700,124701,CA,NAPA VALLEY COLLEGE,NAPA VALLEY COLLEGE - UPPER VALLEY CAMPUS,"1088 College Avenue, St. Helena, CA 94574",38.5098759,-122.4562777,POINT (-2141113.911340377 148259.63959050935),1042,"1620 Sonoma Ave, Santa Rosa, CA 95405-6629",38.442488,-122.6938701,20896.892035498502,12.984726718152553
124700,124700,CA,NAPA VALLEY COLLEGE,NAPA VALLEY COLLEGE - MAIN CAMPUS,"2277 Napa Vallejo Highway, Napa, CA 94558",38.2740455,-122.2751567,POINT (-2134327.068110243 118916.30583046166),1215,"70 Calaveras Ct, Napa, CA 94559-4471",38.2864176,-122.2988369,2385.375085592317,1.4822033608677307
125000,125000,CA,ORANGE COAST COLLEGE,ORANGE COAST COLLEGE,"2701 Fairview Road, Costa Mesa, CA 92628",33.6695251,-117.9125881,POINT (-1909482.3957989484 -471329.45687826944),2649,"2043 Meyer Pl, Costa Mesa, CA 92627-2967",33.6493856,-117.925129,2491.5589182422154,1.5481829355577275
125900,125901,CA,PALO VERDE COLLEGE,PALO VERDE COLLEGE - NEEDLES CENTER,"725 W. Broadway St, Needles, CA 92363",34.8383431,-114.6047684,POINT (-1599293.7312399661 -408686.2421988271),1136,"1900 Erin Dr
600 Cibola St, Needles, CA 92363-2623",34.8343742,-114.6012752,534.1413254111475,0.3319000321939545
125900,125900,CA,PALO VERDE COLLEGE,PALO VERDE COLLEGE - MAIN CAMPUS,"One College Drive, Blythe, CA 92225",33.6619253,-114.652572,POINT (-1629926.5535316137 -535605.1446047545),1962,"295 E Chanslor Way, Blythe, CA 92225-4212",33.6185174,-114.5942597,7037.632163440061,4.372981887924559
126000,126009,CA,PALOMAR COLLEGE,PALOMAR COLLEGE - FALLBROOK EDUCATION CENTER,"35090 Horse Ranch Creek Road, Fallbrook, CA 92028",33.3544608,-117.1571856,POINT (-1852927.6122751334 -520927.40282850194),2055,"405 W Fallbrook St, Fallbrook, CA 92028-3238",33.377214,-117.2548206,8988.602125511157,5.585258419275902
126000,126008,CA,PALOMAR COLLEGE,PALOMAR COLLEGE - RANCHO BERNARDO EDUCATION CENTER,"11111 Rancho Bernardo Road, San Diego, CA 92127",33.0231743,-117.0894293,POINT (-1855545.9196733143 -558064.418706769),1567,"14125 Cuca St, San Diego, CA 92129-1852",32.9706451,-117.097255,5867.03515395709,3.645606628512667
126000,126000,CA,PALOMAR COLLEGE,PALOMAR COLLEGE - MAIN CAMPUS,"1140 West Mission Road, San Marcos, CA 92069",33.1512634,-117.1821995,POINT (-1860281.0296953144 -542345.1018706118),2068,"415 Autumn Dr, San Marcos, CA 92069-2803",33.1429341,-117.1706368,1379.681415887875,0.8572942862979418
126000,126001,CA,PALOMAR COLLEGE,PALOMAR COLLEGE - ESCONDIDO EDUCATION CENTER,"1951 East Valley Parkway, Escondido, CA 92027",33.1356577,-117.0519169,POINT (-1849442.176704543 -546687.0093091758),2314,"1317 Oak Hill Dr, Escondido, CA 92027-3604",33.1245868,-117.0611577,1476.0218897419054,0.9171574813973304
126100,,CA,PASADENA CITY COLLEGE,PASADENA CITY COLLEGE - NORTHWEST,"1905 Lincoln Ave, Pasadena, CA 91103",34.1782093,-118.1604265,POINT (-1917037.278897947 -411339.666014862),2010,"836 W Woodbury Rd, Altadena, CA 91001-5313",34.1829327,-118.1679451,840.238340074685,0.5220998991357254
126100,126100,CA,PASADENA CITY COLLEGE,PASADENA CITY COLLEGE - MAIN CAMPUS,"1570 East Colorado Boulevard, Pasadena, CA 91106",34.1440352,-118.1191286,POINT (-1914448.5827960495 -415888.6948528908),2017,"539 N Lake Ave, Pasadena, CA 91101-1217",34.1553871,-118.1327034,1730.1380851779265,1.0750579647222263
126100,,CA,PASADENA CITY COLLEGE,PASADENA CITY COLLEGE - ROSEMEAD,"4105 N. Rosemead Blvd., Rosemead, CA 91770",34.0819347,-118.0735846,POINT (-1912240.294113933 -423533.09163192625),2566,"525 Dewey Ave, San Gabriel, CA 91776-3901",34.0773474,-118.0932817,1796.8441375528964,1.1165071840159073
126100,126101,CA,PASADENA CITY COLLEGE,PASADENA CITY COLLEGE - COMMUNITY EDUCATION CENTER,"3035 East Foothill Boulevard, Pasadena, CA 91107",34.1503538,-118.0863885,POINT (-1911502.2998019108 -415897.2170715652),2017,"539 N Lake Ave, Pasadena, CA 91101-1217",34.1553871,-118.1327034,4086.26354382662,2.5390864500235004
126600,126600,CA,LANEY COLLEGE,LANEY COLLEGE,"900 Fallon Street, Oakland, CA 94607",37.7955748,-122.2622649,POINT (-2148435.4259787244 67704.5692533236),1536,"900 Fallon St, Oakland, CA 94607-4808",37.7955748,-122.2622649,0.0,0.0
126700,126700,CA,MERRITT COLLEGE,MERRITT COLLEGE,"12500 Campus Drive, Oakland, CA 94619",37.7889957,-122.1672432,POINT (-2141085.408961125 64763.24302484435),1640,"5908 Foothill Blvd, Oakland, CA 94605-1523",37.7716488,-122.1898598,2688.618949466505,1.6706303621018905
126800,126800,CA,PORTERVILLE COLLEGE,PORTERVILLE COLLEGE,"100 East College Avenue, Porterville, CA 93257",36.0490593,-119.0147627,POINT (-1937415.038672836 -192044.47164593675),2770,"254 W Orange, Porterville, CA 93257",36.0615618,-119.0227387,1544.3493985118787,0.9596142269843356
126800,126800,CA,PORTERVILLE COLLEGE,PORTERVILLE COLLEGE,"100 East College Avenue, Porterville, CA 93257",36.0490593,-119.0147627,POINT (-1937415.038672836 -192044.47164593675),2234,"254 W Orange Ave, Porterville, CA 93257",36.0615618,-119.0227387,1544.3493985118787,0.9596142269843356
126900,,CA,RIO HONDO COMMUNITY COLLEGE,RIO HONDO COMMUNITY COLLEGE - EL MONTE EDUCATIONAL CENTER,"3017 Tyler Ave., El Monte, CA 91731",34.0636971,-118.0360364,POINT (-1909536.9255694174 -426285.9581866714),2468,"10410 Bodger St, El Monte, CA 91733-1314",34.0639896,-118.0443379,727.1830471169948,0.4518505969618644
126900,,CA,RIO HONDO COMMUNITY COLLEGE,RIO HONDO COMMUNITY COLLEGE - SOUTH WHITTIER EDUCATIONAL CENTER,"14307 E. Telegraph Rd., Whittier, CA 90604",33.9264637,-118.0259734,POINT (-1912333.3196120816 -441275.06556758727),2536,"9951 Mills Ave, Whittier, CA 90604-1033",33.9433901,-118.0275515,1882.5912962834084,1.1697879982672494
126900,,CA,RIO HONDO COMMUNITY COLLEGE,RIO HONDO COMMUNITY COLLEGE - PICO RIVERA,"9426 Marjorie St., Pico Rivera, CA 90660",33.9834333,-118.085702,POINT (-1915897.0460166216 -433883.49631510663),2528,"6440 Paramount Blvd, Pico Rivera, CA 90660-3417",33.9898611,-118.099603,1411.1581540024094,0.8768530245879125
126900,126900,CA,RIO HONDO COMMUNITY COLLEGE,RIO HONDO COMMUNITY COLLEGE - MAIN CAMPUS,"3600 Workman Mill Road, Whittier, CA 90601",34.0199534,-118.031874,POINT (-1910347.4808534954 -431083.79808996845),2524,"12322 Pellissier Rd, Whittier, CA 90601-1541",34.0337081,-118.0322628,1526.081975980652,0.9482633768670042
126900,,CA,RIO HONDO COMMUNITY COLLEGE,RIO HONDO COMMUNITY COLLEGE - SANTE FE SPRINGS REGIONAL TRAINING CENTER,"11400 Greenstone Ave., Santa Fe Springs, CA 90670",33.9279083,-118.0576369,POINT (-1914989.815620366 -440453.1159105925),2532,"13118 Rainier Ave, Whittier, CA 90605-3527",33.9278804,-118.0525248,448.21463631126903,0.27850766294295626
127000,127000,CA,RIVERSIDE CITY COLLEGE,RIVERSIDE CITY COLLEGE - MAIN CAMPUS,"4800 Magnolia Avenue, Riverside, CA 92506",33.9716048,-117.3829923,POINT (-1856390.8092968103 -449734.48639518814),2769,"4341 Victoria Ave, Riverside, CA 92507-5009",33.9712469,-117.3662484,1467.6654699957503,0.9119650428968264
127000,,CA,RIVERSIDE CITY COLLEGE,RIVERSIDE CITY COLLEGE - RUBIDOUX ANNEX,"4199 Pacific Ave, Riverside, CA 92509",33.9989356,-117.423606,POINT (-1859143.652080662 -445956.72407376795),1936,"6110 45th St, Jurupa Valley, CA 92509-7201",33.9929026,-117.4251479,682.6880189511464,0.4242026682618175
127000,127005,CA,RIVERSIDE CITY COLLEGE,RIVERSIDE CITY COLLEGE - CULINARY ARTS ACADEMY,"3801 Market Street, Riverside, CA 92501",33.9823648,-117.3762449,POINT (-1855537.860753602 -448711.5208823697),2769,"4341 Victoria Ave, Riverside, CA 92507-5009",33.9712469,-117.3662484,1512.594202296364,0.9398824628521708
127200,127200,CA,SAN BERNARDINO VALLEY COLLEGE,SAN BERNARDINO VALLEY COLLEGE,"701 South Mount Vernon Avenue, San Bernardino, CA 92410",34.088754,-117.3129529,POINT (-1847404.3030257693 -438522.84304297756),2172,"720 S E St, San Bernardino, CA 92408-1907",34.0870892,-117.2942015,1650.7261507861333,1.0257136763713248
127300,127301,CA,SAN DIEGO CITY COLLEGE,SAN DIEGO CITY COLLEGE - EDUCATIONAL CULTURAL COMPLEX,"4343 Ocean View Boulevard, San Diego, CA 92113",32.699726,-117.1026339,POINT (-1864936.947176063 -592704.3555474613),1762,"4344 Ocean View Blvd, San Diego, CA 92113-1916",32.7005114,-117.1007916,185.9442139507955,0.1155403779122397
127300,127300,CA,SAN DIEGO CITY COLLEGE,SAN DIEGO CITY COLLEGE - MAIN CAMPUS,"1313 Park Boulevard, San Diego, CA 92101",32.7187014,-117.1525361,POINT (-1868782.1937822949 -589632.0332303315),1755,"1601 B St, San Diego, CA 92101-4719",32.7176047,-117.1491087,328.8707891770345,0.20435083436296683
127500,127500,CA,SAN DIEGO MESA COLLEGE,SAN DIEGO MESA COLLEGE,"7250 Mesa College Drive, San Diego, CA 92111-4998",32.8047563,-117.1690578,POINT (-1868013.665675415 -580006.2849492072),1758,"7250 Mesa College Dr, San Diego, CA 92111-4902",32.8047563,-117.1690578,0.0,0.0
128000,128000,CA,SAN JOAQUIN DELTA COLLEGE,SAN JOAQUIN DELTA COLLEGE - MAIN CAMPUS,"5151 Pacific Avenue, Stockton, CA 95207",37.9950829,-121.3192899,POINT (-2067249.8628079821 67105.38487319955),1363,"6402 Inglewood Ave, Stockton, CA 95207-3829",38.0100017,-121.3145313,1702.0569365814897,1.0576091479394645
128000,128001,CA,SAN JOAQUIN DELTA COLLEGE,SAN JOAQUIN DELTA COLLEGE - SOUTH CAMPUS AT MOUNTAIN HOUSE,"2073 S. Central Parkway, Mountain House, CA 95391",37.7568556,-121.5471492,POINT (-2092695.5078731335 46903.10695017884),2781,"1618 Chester Dr, Tracy, CA 95376-2928",37.7469395,-121.4399354,8967.473983999676,5.572130000795154
128200,128200,CA,SAN JOSE CITY COLLEGE,SAN JOSE CITY COLLEGE,"2100 Moorpark Avenue, San Jose, CA 95128",37.3158432,-121.9262891,POINT (-2136680.274689731 8721.054644646454),1087,"780 Thornton Way, San Jose, CA 95128-4713",37.3137907,-121.9382894,1028.0835008464862,0.6388214706405133
128400,128404,CA,SANTA ANA COLLEGE,SANTA ANA COLLEGE - SCHOOL OF CONTINUING EDUCATION,"2900 West Edinger Avenue, Santa Ana, CA 927043902",33.7263479,-117.9100257,POINT (-1907759.4505346566 -465262.7150252921),2633,"3001 W Harvard St, Santa Ana, CA 92704-3913",33.7212622,-117.9091781,568.9955219500636,0.3535574258518151
128400,128400,CA,SANTA ANA COLLEGE,SANTA ANA COLLEGE,"1530 West 17th Street, Santa Ana, CA 927063398",33.7579713,-117.888884,POINT (-1905118.0811579607 -462299.602129608),983,"1530 W 17th St
Bldg V, Santa Ana, CA 92706-3398",33.7592754,-117.8875953,183.70969931329577,0.11415191488786472
128400,128403,CA,SANTA ANA COLLEGE,SANTA ANA COLLEGE - CRIMINAL JUSTICE TRAINING CENTER,"15991 Armstrong Avenue, Tustin, CA 927822715",33.7086706,-117.833193,POINT (-1901665.0254556432 -468776.40148769604),2660,"2501 Pullman St
Ste 100, Santa Ana, CA 92705-5511",33.7119166,-117.8469861,1265.2733596870776,0.7862044160148964
128500,128500,CA,SANTA BARBARA CITY COLLEGE,SANTA BARBARA CITY COLLEGE - MAIN CAMPUS,"721 Cliff Drive, Santa Barbara, CA 93109",34.4044715,-119.6999788,POINT (-2040823.3075144994 -353527.6566254567),1430,"629 Coronel Pl, Santa Barbara, CA 93101-4523",34.4095637,-119.7029318,620.6644701555599,0.38566302179991346
128500,,CA,SANTA BARBARA CITY COLLEGE,SANTA BARBARA CITY COLLEGE - SCHOTT CAMPUS,"310 W Padre Street, Santa Barbara, CA 93105",34.4285888,-119.7199678,POINT (-2041815.3666181993 -350494.0278298163),1440,"2115 State St, Santa Barbara, CA 93105-3555",34.4319241,-119.7167001,466.716125868356,0.29000395556721
128500,,CA,SANTA BARBARA CITY COLLEGE,SANTA BARBARA CITY COLLEGE - WAKE CAMPUS,"300 N Turnpike Road, Santa Barbara, CA 93111",34.4450309,-119.7879524,POINT (-2047061.8351681242 -347203.4703464568),1432,"5681 Hollister Ave, Goleta, CA 93117-3423",34.434251,-119.823546,3321.206739740841,2.063702191539435
128600,128600,CA,SANTA MONICA COLLEGE,SANTA MONICA COLLEGE - MAIN CAMPUS,"1900 Pico Boulevard, Santa Monica, CA 90405",34.0190821,-118.4704901,POINT (-1947633.1057798816 -421872.92247820884),2579,"2401 14th St, Santa Monica, CA 90405-2615",34.0122717,-118.4710219,756.8597901577049,0.4702908701667915
128600,,CA,SANTA MONICA COLLEGE,SANTA MONICA COLLEGE - EMERITUS CAMPUS,"1227 2nd St, Santa Monica, CA 90401",34.0173955,-118.4994429,POINT (-1950136.9978701214 -421433.8332064361),2580,"2526 6th St, Santa Monica, CA 90405-3708",34.0057035,-118.4806025,2098.5742245728,1.3039935679213395
128600,128602,CA,SANTA MONICA COLLEGE,SANTA MONICA COLLEGE - CENTER FOR MEDIA & DESIGN,"1660 Stewart St, Santa Monica, CA 90404",34.03064,-118.4671438,POINT (-1947035.4493271858 -420701.4873701932),2581,"2401 Santa Monica Blvd, Santa Monica, CA 90404-2044",34.0317879,-118.4770441,876.0485073585869,0.544351305475142
128600,,CA,SANTA MONICA COLLEGE,SANTA MONICA COLLEGE - AIRPORT CAMPUS,"2800 Airport Ave, Santa Monica, CA 90405",34.0128846,-118.4507638,POINT (-1946126.2500361882 -422961.81329021417),2579,"2401 14th St, Santa Monica, CA 90405-2615",34.0122717,-118.4710219,1775.3099651704022,1.1031264696487526
128600,,CA,SANTA MONICA COLLEGE,SANTA MONICA COLLEGE - BUNDY CAMPUS,"3171 S Bundy Dr, Los Angeles, CA 90066",34.0154777,-118.4444212,POINT (-1945517.388791306 -422818.6138266018),2074,"12316 Venice Blvd, Los Angeles, CA 90066-3802",34.0038223,-118.4326348,1654.324811225679,1.0279497802991027
128700,128701,CA,SANTA ROSA JUNIOR COLLEGE,SANTA ROSA JUNIOR COLLEGE - PETALUMA CAMPUS,"680 Sonoma Mountain Parkway, Petaluma, CA 94954",38.2675796,-122.6351578,POINT (-2162941.8415100863 126735.27083349135),1047,"110 Ellis St, Petaluma, CA 94952-3305",38.2441147,-122.6337506,2607.2168748865943,1.620049457969579
128700,128700,CA,SANTA ROSA JUNIOR COLLEGE,SANTA ROSA JUNIOR COLLEGE - SANTA ROSA CAMPUS,"1501 Mendocino Avenue, Santa Rosa, CA 95401",38.454581,-122.7198213,POINT (-2163606.046552324 148620.2937870886),1549,"455 Ridgway Ave, Santa Rosa, CA 95401-4323",38.4502188,-122.7199242,484.3006536238227,0.3009304745435548
128700,,CA,SANTA ROSA JUNIOR COLLEGE,SANTA ROSA JUNIOR COLLEGE - SOUTHWEST SANTA ROSA CENTER,"950 S. Wright Road, Santa Rosa, CA 95407-6608",38.4238382,-122.7677024,POINT (-2168360.765781248 146494.77406769426),1049,"246 Brittain Ln, Santa Rosa, CA 95401-5810",38.43307,-122.74937,1822.1017394420815,1.1322015302148463
128700,128702,CA,SANTA ROSA JUNIOR COLLEGE,SANTA ROSA JUNIOR COLLEGE - SHONE FARM,"6225 Eastside Road, Forestville, CA 95436",38.4978807,-122.8677048,POINT (-2173831.6375104324 156746.7607478127),1040,"10288 Starr Rd, Windsor, CA 95492-9458",38.5617729,-122.8255945,7889.459168584174,4.902282649690914
128700,128702,CA,SANTA ROSA JUNIOR COLLEGE,SANTA ROSA JUNIOR COLLEGE - PUBLIC SAFETY TRAINING CENTER,"5743 Skylane Blvd., Windsor, CA 95492",38.5234834,-122.8020341,POINT (-2167847.6110589528 157898.1291835113),1040,"10288 Starr Rd, Windsor, CA 95492-9458",38.5617729,-122.8255945,4669.292225404941,2.9013636770043822
128900,,CA,SHASTA COLLEGE,SHASTA COLLEGE - INTERMOUNTAIN CAMPUS,"37581 Mountain View Rd, Burney, CA 96013",40.8849668,-121.6496198,POINT (-2004197.4415210038 382829.3851495019),1898,"20375 Tamarack Ave, Burney, CA 96013-4054",40.8799829,-121.6717432,1837.230632846068,1.1416021887465129
128900,128900,CA,SHASTA COLLEGE,SHASTA COLLEGE - MAIN CAMPUS,"11555 Old Oregon Trail, Redding CA 96049-6006",40.6255781,-122.3180956,POINT (-2063204.3292106043 370142.81696091493),1893,"19711 Shasta College Dr
Shasta College Dr., Redding, CA 96003-8278",40.628142,-122.3206716,350.7133777205681,0.21792318964781182
128900,,CA,SHASTA COLLEGE,SHASTA COLLEGE - TRINITY CAMPUS,"30 Arbuckle Ct, Weaverville, CA 96093",40.7108235,-122.9246399,POINT (-2106610.7553208508 393113.3589796156),1908,"30920 State Highway 3, Weaverville, CA 96093",40.7329148,-122.9385816,2691.287630097942,1.6722886033675473
128900,,CA,SHASTA COLLEGE,SHASTA COLLEGE - HEALTH SCIENCES AND UNIVERSITY CENTER,"1400 Market Street, Suite 8204, Redding, CA 96001",40.5848729,-122.3914219,POINT (-2070084.2315422504 367477.68185979273),1903,"590 Mary St
Bldg 50, Redding, CA 96001-0311",40.5909095,-122.4079574,1476.3020295418821,0.9173315521988351
128900,,CA,SHASTA COLLEGE,SHASTA COLLEGE - TEHAMA CAMPUS,"770 Diamond Ave., Red Bluff, CA 96080",40.1576213,-122.2182777,POINT (-2070373.4040694984 318064.1656471215),2103,"1050 Kimball Rd, Red Bluff, CA 96080-4550",40.1580619,-122.2415699,1865.679828930283,1.1592796996355552
129000,,CA,SIERRA COLLEGE,SIERRA COLLEGE - ROSEVILLE CENTER,"316 Vernon Street, Roseville, CA 95678",38.7488477,-121.2847203,POINT (-2041533.0718667482 146776.45941415802),1606,"201 N Grant St, Roseville, CA 95678-2223",38.7506069,-121.2890785,406.446687179259,0.2525542625934909
129000,,CA,SIERRA COLLEGE,SIERRA COLLEGE - TAHOE-TRUCKEE CAMPUS,"11001 College Trail, Truckee, CA 96161",39.3214793,-120.2030355,POINT (-1939594.1148377047 184330.23012580787),1013,"11661 Donner Pass Rd, Truckee, CA 96161-4953",39.3237578,-120.2126536,819.9418420799701,0.5094882399785068
129000,129000,CA,SIERRA COLLEGE,SIERRA COLLEGE - ROCKLIN CAMPUS,"5100 Sierra College Boulevard, Rocklin, CA 95677",38.7915299,-121.2115689,POINT (-2034482.0888217038 149693.6260945812),1005,"5645 Rocklin Rd, Loomis, CA 95650-9058",38.7896,-121.1983959,1097.8839981167846,0.6821934888481174
129000,,CA,SIERRA COLLEGE,SIERRA COLLEGE - NEVADA COUNTY CAMPUS,"250 Sierra College Dr., Grass Valley, CA 95945",39.2360189,-121.0473506,POINT (-2008147.0806591292 193516.00500221053),1008,"250 Sierra College Dr, Grass Valley, CA 95945-5726",39.2360189,-121.0473506,0.0,0.0
129200,129201,CA,SOLANO COMMUNITY COLLEGE,SOLANO COMMUNITY COLLEGE - VALLEJO CENTER,"545 Columbus Parkway, Vallejo, CA 94591",38.1348576,-122.2029536,POINT (-2133016.2376667038 102410.99259952617),1214,"1638 Fairgrounds Dr
Ste A, Vallejo, CA 94589-2076",38.1459994,-122.2345894,2889.1137067616514,1.7952120284797106
129200,129202,CA,SOLANO COMMUNITY COLLEGE,SOLANO COMMUNITY COLLEGE - VACAVILLE CENTER,"2001 North Village Parkway, Vacaville, CA 95688",38.3941136,-121.9415337,POINT (-2104220.311573281 123923.18321108738),1100,"1355 Marshall Rd, Vacaville, CA 95687-5519",38.3461422,-121.9665295,5708.087098143188,3.5468408855677764
129200,129200,CA,SOLANO COMMUNITY COLLEGE,SOLANO COMMUNITY COLLEGE - MAIN CAMPUS,"4000 Suisun Valley Road, Fairfield, CA 94534",38.2357369,-122.1226659,POINT (-2123488.8391525717 111269.21700389113),1102,"4000 Suisun Valley Rd
Buildings 200, Fairfield, CA 94534-4017",38.2357369,-122.1226659,0.0,0.0
129400,129403,CA,SOUTHWESTERN COMMUNITY COLLEGE DISTRICT,SOUTHWESTERN COLLEGE - HIGHER EDUCATION CENTER AT OTAY MESA,"8100 Gigantic Street, San Diego, CA 92154",32.5628029,-116.9680992,POINT (-1856730.1236582785 -610237.4934318124),1818,"249 Willow Rd, San Ysidro, CA 92173-3006",32.5473954,-117.0426816,6879.453954317487,4.2746945055360985
129400,129400,CA,SOUTHWESTERN COMMUNITY COLLEGE DISTRICT,SOUTHWESTERN COMMUNITY COLLEGE - CHULLA VISTA CAMPUS,"900 Otay Lakes Road, Chula Vista, CA 91910",32.6407202,-116.998059,POINT (-1857358.1179296132 -601213.8508273468),1814,"7375 Tooma St, San Diego, CA 92139-2938",32.6816679,-117.0347789,5599.479003666312,3.479354944416055
129400,129402,CA,SOUTHWESTERN COMMUNITY COLLEGE DISTRICT,SOUTHWESTERN COLLEGE - HIGHER EDUCATION CENTER AT NATIONAL CITY,"880 National City Boulevard, National City, CA 91950",32.6748741,-117.1071717,POINT (-1865964.7537962082 -595293.41308487),1776,"933 E Ave, National City, CA 91950-3416",32.6762929,-117.1003691,626.8764141656359,0.38952294485556593
129400,129401,CA,SOUTHWESTERN COMMUNITY COLLEGE DISTRICT,SOUTHWESTERN COLLEGE - HIGHER EDUCATION CENTER AT SAN YSIDRO,"480 West San Ysidro Boulevard, San Ysidro, CA 92173",32.5559334,-117.0546008,POINT (-1864427.6012923466 -609209.1187371678),1796,"3825 Sunset Ln, San Ysidro, CA 92173-3334",32.5580372,-117.0511275,388.24635625607124,0.2412451012686357
130700,130701,CA,FRESNO CITY COLLEGE,FRESNO CITY COLLEGE - CAREER AND TECHNOLOGY CENTER,"2930 East Annadale Avenue, Fresno, CA 93725",36.6993018,-119.7756108,POINT (-1981370.0765497761 -105868.61933120873),1465,"1350 E Annadale Ave, Fresno, CA 93706-5538",36.6991158,-119.7958219,1703.7997507346079,1.0586920824476358
130700,130700,CA,FRESNO CITY COLLEGE,FRESNO CITY COLLEGE - MAIN CAMPUS,"1101 East University Avenue, Fresno, CA 93741",36.7670832,-119.7968395,POINT (-1981152.5479538916 -98140.1173763687),2807,"2045 N Wishon Ave, Fresno, CA 93704-6154",36.769322,-119.8012715,448.34663136187623,0.2785896808649215
130800,130800,CA,REEDLEY COLLEGE,REEDLEY COLLEGE,"995 North Reed Avenue, Reedley, CA 93654",36.6068149,-119.4598032,POINT (-1958261.0664796208 -122629.02955731798),1352,"1501 N Del Altair Ave, Reedley, CA 93654-8814",36.6122041,-119.44674,1254.322460921124,0.7793998429926255
130900,130900,CA,TAFT COLLEGE,TAFT COLLEGE,"29 Cougar Court, Taft, CA 93268",35.1498984,-119.4621831,POINT (-1999704.849982896 -278881.8030204948),2432,"819 6th St, Taft, CA 93268-2305",35.147479,-119.4582684,431.13682132302523,0.2678960006829026
133400,133400,CA,VENTURA COLLEGE,VENTURA COLLEGE - MAIN CAMPUS,"4667 Telegraph Road, Ventura, CA 93003",34.2769061,-119.2328048,POINT (-2005059.4268434006 -377603.16249082214),2785,"4300 Telegraph Rd, Ventura, CA 93003-3890",34.2744719,-119.2362164,401.8887056103202,0.24972206415180356
133400,133401,CA,VENTURA COLLEGE,VENTURA COLLEGE - EAST CAMPUS,"957 Faulkner Road, 106, Santa Paula, CA 93060",34.335058,-119.0871171,POINT (-1991138.1188773536 -374561.9249644361),2271,"228 W Santa Barbara St, Santa Paula, CA 93060-2585",34.3501513,-119.0774925,1872.7164141121584,1.1636520309592966
133500,133500,CA,VICTOR VALLEY COMMUNITY COLLEGE,VICTOR VALLEY COMMUNITY COLLEGE,"18422 Bear Valley Road, Victorville, CA 92395",34.473543,-117.2610014,POINT (-1833094.2404692285 -398054.7946440306),1137,"18422 Bear Valley Rd, Victorville, CA 92395-5850",34.473543,-117.2610014,0.0,0.0
133800,,CA,WEST VALLEY COLLEGE,WEST VALLEY COLLEGE - CAMPBELL CENTER,"1 W Campbell Ave, Campbell, CA 95008",37.2876809,-121.9516216,POINT (-2139591.010399677 6317.489157834652),1087,"780 Thornton Way, San Jose, CA 95128-4713",37.3137907,-121.9382894,3104.50644333337,1.9290508700025413
133800,133800,CA,WEST VALLEY COLLEGE,WEST VALLEY COLLEGE - MAIN CAMPUS,"14000 Fruitvale Avenue, Saratoga, CA 95070",37.2640661,-122.0108938,POINT (-2145083.3707101 5199.365469718661),1087,"780 Thornton Way, San Jose, CA 95128-4713",37.3137907,-121.9382894,8202.011613566616,5.096493735066347
134400,134400,CA,YUBA COLLEGE,YUBA COLLEGE - MAIN CAMPUS,"2088 North Beale Road, Marysville, CA 95901",39.1255948,-121.5395426,POINT (-2049973.5487431316 192710.94796433026),1651,"5903 Lowe Ave, Marysville, CA 95901-6879",39.1270142,-121.5606519,1724.062043277408,1.0712824873224172
134400,134405,CA,YUBA COLLEGE,YUBA COLLEGE - SUTTER COUNTY CAMPUS,"3301 East Onstott Road, Yuba City, CA 95953",39.1765223,-121.6330477,POINT (-2055706.6305821156 200253.50006416222),1668,"1266 Stabler Ln, Yuba City, CA 95993-2620",39.1458828,-121.6461868,3565.3091681343685,2.21538040849835
134600,134600,CO,ARAPAHOE COMMUNITY COLLEGE,ARAPAHOE COMMUNITY COLLEGE - LITTLETON CAMPUS,"5900 South Santa Fe Drive, Littleton, CO 80160",39.6083162,-105.0190322,POINT (-727024.8577299851 -7404.3176621932325),3063,"1907 W Powers Ave, Littleton, CO 80120-1247",39.6159694,-105.0105136,1093.180615701132,0.6792709425089551
134600,134630,CO,ARAPAHOE COMMUNITY COLLEGE,ARAPAHOE COMMUNITY COLLEGE - CASTLE ROCK CAMPUS,"4500 Limelight Ave, Castle Rock, CO 80160",39.4089775,-104.8862838,POINT (-718517.7314300092 -30483.949637270165),3063,"1907 W Powers Ave, Littleton, CO 80120-1247",39.6159694,-105.0105136,25080.81928701235,15.584498582659984
134600,134602,CO,ARAPAHOE COMMUNITY COLLEGE,ARAPAHOE COMMUNITY COLLEGE - PARKER CAMPUS,"15653 Brookstone Drive, Parker, CO 80134",39.5414543,-104.8094849,POINT (-710904.8041507071 -16448.989209358006),3059,"15132 E Hampden Ave
Ste A, Aurora, CO 80014-5038",39.6520114,-104.8123573,12276.992904922174,7.628569718420781
135500,135500,CO,LAMAR COMMUNITY COLLEGE,LAMAR COMMUNITY COLLEGE,"2401 South Main, Lamar, CO 81052",38.0674918,-102.6165979,POINT (-546204.0421839672 -194658.6593232816),3027,"607 Savage Ave, Lamar, CO 81052-4166",38.0701315,-102.6233703,631.6198546694924,0.39247038213675406
135900,135900,CO,COLORADO NORTHWESTERN COMMUNITY COLLEGE,COLORADO NORTHWESTERN COMMUNITY COLLEGE - RANGELY CAMPUS,"500 Kennedy Drive, Rangely, CO 81648",40.0801088,-108.7887766,POINT (-1021852.4282913274 80871.6798495451),15050,"6623 East 5500 South, Fort Duchesne, UT 84026",40.376565,-109.4222052,60419.035247250424,37.5426479654135
135900,135900,CO,COLORADO NORTHWESTERN COMMUNITY COLLEGE,COLORADO NORTHWESTERN COMMUNITY COLLEGE - RANGELY CAMPUS,"500 Kennedy Drive, Rangely, CO 81648",40.0801088,-108.7887766,POINT (-1021852.4282913274 80871.6798495451),15051,"6624 East 5500 South, Fort Duchesne, UT 84026",40.376565,-109.4222052,60419.035247250424,37.5426479654135
135900,135901,CO,COLORADO NORTHWESTERN COMMUNITY COLLEGE,COLORADO NORTHWESTERN COMMUNITY COLLEGE - CRAIG CAMPUS,"2801 West 9th Street, Craig, CO 81625",40.5238127,-107.5787625,POINT (-919463.2265353858 116783.47167249449),2960,"600 Texas Ave, Craig, CO 81625-1852",40.516815,-107.5366442,3442.674736243485,2.1391789053449632
136100,136100,CO,NORTHEASTERN JUNIOR COLLEGE,NORTHEASTERN JUNIOR COLLEGE,"100 College Avenue, Sterling, CO 80751",40.6369644,-103.1973803,POINT (-571495.9216027402 93358.24122649782),3016,"405 W 2nd Ave, Iliff, CO 80736",40.7589806,-103.0671132,17047.204135325013,10.592641557880112
136200,136200,CO,OTERO JUNIOR COLLEGE,OTERO JUNIOR COLLEGE,"1802 Colorado Avenue, La Junta, CO 81050",37.968363,-103.5459056,POINT (-623665.714709877 -199650.86041092593),3025,"800 Grace Ave, La Junta, CO 81050-2529",37.9799641,-103.5352864,1558.863553387516,0.9686329047037278
136800,136801,CO,TRINIDAD STATE JUNIOR COLLEGE,TRINIDAD STATE JUNIOR COLLEGE - VALLEY CAMPUS,"1011 Main Street, Alamosa, CO 81101",37.468592,-105.8718291,POINT (-821246.3880820518 -236389.90272421966),2850,"809 Ross Ave, Alamosa, CO 81101-3135",37.4694491,-105.8700214,178.19356796921713,0.11072434977805685
136800,136800,CO,TRINIDAD STATE JUNIOR COLLEGE,TRINIDAD STATE JUNIOR COLLEGE - MAIN CAMPUS,"600 Prospect Street, Trinidad, CO 81082",37.1721091,-104.5133697,POINT (-711667.7912307135 -280578.11471028277),2827,"513 Alta St, Trinidad, CO 81082-2807",37.166904,-104.5206052,837.0397182256024,0.5201123676638446
139200,139200,CT,MANCHESTER COMMUNITY COLLEGE,MANCHESTER COMMUNITY COLLEGE,"Great Path, Manchester, CT 06045",41.7622906,-72.5670043,POINT (1810203.2347324071 430250.49996350374),3134,"60 Washington St, Manchester, CT 06042-3517",41.7864259,-72.5206214,4506.402891403394,2.800148937333096
139800,139800,CT,NORTHWESTERN CONNECTICUT COMMUNITY COLLEGE,NORTHWESTERN CONNECTICUT COMMUNITY COLLEGE,"Park Place East, Winsted, CT 06098",41.9219147,-73.0596605,POINT (1768539.7205447273 437712.0877770272),3098,"201 Pratt St, Winsted, CT 06098-2061",41.9135005,-73.0732701,1413.5294011260387,0.8783264492402113
139900,139900,CT,NORWALK COMMUNITY COLLEGE,NORWALK COMMUNITY COLLEGE,"188 Richards Avenue, Norwalk, CT 06854",41.1029576,-73.4507446,POINT (1761341.1705122879 341995.17690130405),3121,"165 Flax Hill Rd, Norwalk, CT 06854-2837",41.0982287,-73.4249272,2104.105812443713,1.3074307372716543
147000,147001,FL,EASTERN FLORIDA STATE COLLEGE,EASTERN FLORIDA STATE COLLEGE - MELBOURNE,"3865 North Wickham Road, Melbourne, FL 32935",28.1691549,-80.6701448,POINT (1444815.349587814 -1190262.656757515),3770,"2541 Post Rd, Melbourne, FL 32935-2315",28.1702251,-80.6642722,568.6169752163812,0.35332220781658935
147000,147002,FL,EASTERN FLORIDA STATE COLLEGE,EASTERN FLORIDA STATE COLLEGE - TITUSVILLE,"1311 North U.S. 1, Titusville, FL 32796",28.6334652,-80.8274929,POINT (1421577.8633476477 -1142007.0641367992),3791,"2582 US Highway 1, Mims, FL 32754-3898",28.6677163,-80.8469904,4216.263814054493,2.6198648729261693
147000,147005,FL,EASTERN FLORIDA STATE COLLEGE,EASTERN FLORIDA STATE COLLEGE - PALM BAY,"250 Community College Pkwy, Palm Bay, FL 32909",27.9871408,-80.6292477,POINT (1452026.524875003 -1209495.4277872331),3773,"301 Pioneer Ave NE, Palm Bay, FL 32907-2484",28.0040668,-80.6207519,2041.6916900946276,1.268648399655156
147000,147000,FL,EASTERN FLORIDA STATE COLLEGE,EASTERN FLORIDA STATE COLLEGE - COCOA,"1519 Clearlake Road, Cocoa, FL 32922",28.3839665,-80.7590273,POINT (1432545.627828038 -1168198.195472718),3765,"2000 Cambridge Dr, Cocoa, FL 32922-6599",28.383468,-80.7500438,850.1529949289618,0.5282605800431491
147100,147102,FL,COLLEGE OF CENTRAL FLORIDA,COLLEGE OF CENTRAL FLORIDA - LEVY CAMPUS,"15390 N.W. Highway 19, Chiefland, FL 32626",29.5528973,-82.9031713,POINT (1213926.1334196923 -1071403.4028457457),3754,"3690 NW 120th St, Chiefland, FL 32626-3213",29.5036364,-82.8343158,8417.569475336919,5.230435180630691
147100,147103,FL,COLLEGE OF CENTRAL FLORIDA,COLLEGE OF CENTRAL FLORIDA - HAMPTON CENTER,"1501 W. Silver Springs Blvd, Ocala, FL 34475-6456",29.1870055,-82.1520701,POINT (1289172.8418725217 -1101177.5675457297),3747,"306 NW 7th Ave, Ocala, FL 34475-6502",29.1890756,-82.1452331,678.8990005781209,0.42184828139796143
147100,147101,FL,COLLEGE OF CENTRAL FLORIDA,COLLEGE OF CENTRAL FLORIDA - CITRUS CAMPUS,"3800 S. Lecanto Highway, Lecanto, FL 34461-9026",28.8091809,-82.4900813,POINT (1264139.440343439 -1147326.8931477536),3742,"2285 Carter St, Inverness, FL 34453-3847",28.8420804,-82.3592384,12815.372230529387,7.963103121849267
147100,147100,FL,COLLEGE OF CENTRAL FLORIDA,COLLEGE OF CENTRAL FLORIDA - OCALA CAMPUS,"3001 S.W. College Road, Ocala, FL 34474-4415",29.1652121,-82.173907,POINT (1287521.5128004479 -1103874.611135138),3747,"306 NW 7th Ave, Ocala, FL 34475-6502",29.1890756,-82.1452331,3765.4965029408727,2.3397710513978818
147100,147105,FL,COLLEGE OF CENTRAL FLORIDA,COLLEGE OF CENTRAL FLORIDA - VINTAGE FARM CAMPUS,"4020 S.E. Third Ave, Ocala, FL 34470-5001",29.1472832,-82.13579,POINT (1291345.382450593 -1105298.3110648303),3747,"306 NW 7th Ave, Ocala, FL 34475-6502",29.1890756,-82.1452331,4715.576350544964,2.9301232990243005
147200,147200,FL,CHIPOLA COLLEGE,CHIPOLA COLLEGE,"3094 Indian Circle, Marianna, FL 32446",30.7874026,-85.2325808,POINT (982969.5662765861 -963858.1943944334),3510,"4283 Kelson Ave, Marianna, FL 32446-2947",30.7831411,-85.2384861,717.7891565307965,0.44601350396857137
147500,147503,FL,DAYTONA STATE COLLEGE,DAYTONA STATE COLLEGE - DELAND CAMPUS,"1155 County Road 4139, DeLand, FL 32724",29.013299,-81.2431494,POINT (1376178.5697394898 -1106872.1335113195),3664,"282 N Blue Lake Ave, Deland, FL 32724-4603",29.0357023,-81.2747517,3863.3339530904145,2.4005644244427633
147500,147504,FL,DAYTONA STATE COLLEGE,DAYTONA STATE COLLEGE - ADVANCED TECHNOLOGY CENTER,"1770 Technology Blvd., Daytona Beach, FL 32117",29.2323052,-81.0988489,POINT (1385555.4480907873 -1080728.715934644),3640,"1210 Jimmy Ann Dr, Daytona Beach, FL 32117-3818",29.2241772,-81.0716711,2693.6788927677453,1.6737744651036355
147500,147502,FL,DAYTONA STATE COLLEGE,DAYTONA STATE COLLEGE - NEW SMYRNA BEACH/EDGEWATER CAMPUS,"940 10th St., New Smyrna Beach, FL 32168",28.996912,-80.927457,POINT (1405651.5443996773 -1103835.0862505173),3634,"531 Mary Ave, New Smyrna Beach, FL 32168-6660",29.0272963,-80.9311835,3385.713802772705,2.1037850222032737
147500,147500,FL,DAYTONA STATE COLLEGE,DAYTONA STATE COLLEGE - DAYTONA BEACH CAMPUS,"1200 W. International Speedway Blvd, Daytona Beach, FL 32114",29.2029688,-81.0495034,POINT (1390634.611562988 -1083183.3613799727),3497,"868 George W Engram Blvd, Daytona Beach, FL 32114-1859",29.2139082,-81.039733,1517.721175751623,0.9430682164606342
147500,147506,FL,DAYTONA STATE COLLEGE,DAYTONA STATE COLLEGE - DELTONA CAMPUS,"2351 Providence Blvd., Deltona, FL 32725",28.9285127,-81.2211963,POINT (1379728.408600474 -1115813.115442865),3658,"2022 Adelia Blvd, Deltona, FL 32725-3976",28.9211308,-81.2176734,882.3491724616046,0.5482663572620922
147500,147501,FL,DAYTONA STATE COLLEGE,DAYTONA STATE COLLEGE - FLAGLER/PALM COAST CAMPUS,"3000 Palm Coast Parkway Southeast, Palm Coast, FL 32137",29.5565767,-81.1921029,POINT (1371134.0303554768 -1046677.8235086692),3926,"105 E Drain Street, Bunnell, FL 32110",29.4627127,-81.2531288,11853.370723025095,7.365343098197212
147700,,FL,FLORIDA SOUTHWESTERN STATE COLLEGE,FLORIDA SOUTHWESTERN STATE COLLEGE - LEE CAMPUS,"8099 College Pkwy, Fort Myers, FL 33919",26.5517364,-81.8887652,POINT (1358627.87957033 -1385934.0093722795),3323,"8385 Beacon Blvd, Fort Myers, FL 33907-3002",26.5680401,-81.8675736,2731.0645147317637,1.697004813595952
147700,147701,FL,FLORIDA SOUTHWESTERN STATE COLLEGE,FLORIDA SOUTHWESTERN STATE COLLEGE - CHARLOTTE CAMPUS,"26300 Airport Road, Punta Gorda, FL 33950",26.9228439,-82.0190007,POINT (1339890.978555917 -1347237.5603598065),3392,"27050 Fairway Dr, Punta Gorda, FL 33982-1857",26.9412513,-82.0035848,2521.78456878196,1.5669642840697575
147700,147700,FL,FLORIDA SOUTHWESTERN STATE COLLEGE,FLORIDA SOUTHWESTERN STATE COLLEGE - MAIN CAMPUS,"8099 College Parkway, Fort Myers, FL 339195566",26.5516108,-81.8892892,POINT (1358579.9853394856 -1385955.5872993735),3323,"8385 Beacon Blvd, Fort Myers, FL 33907-3002",26.5680401,-81.8675736,2778.3528748697818,1.7263884383138606
147700,147703,FL,FLORIDA SOUTHWESTERN STATE COLLEGE,FLORIDA SOUTHWESTERN STATE COLLEGE - HENDRY/GLADES CURTIS CENTER,"1092 E Cowboy Way, LaBelle, FL 33935",26.748134,-81.41964,POINT (1399939.497971773 -1357327.7362503964),3415,"551 W Cowboy Way, Labelle, FL 33935-4092",26.7464324,-81.4469752,2642.6496216456276,1.6420663460674831
147700,147702,FL,FLORIDA SOUTHWESTERN STATE COLLEGE,FLORIDA SOUTHWESTERN STATE COLLEGE - COLLIER CAMPUS,"7505 Grand Lely Dr, Naples, FL 34113",26.1034826,-81.7009929,POINT (1384335.8236741512 -1432160.5916338766),3900,"8125 Lely Cultural Pkwy, Naples, FL 34113-8979",26.1046315,-81.6913163,949.2622042231227,0.5898441875839613
148400,148400,FL,FLORIDA STATE COLLEGE AT JACKSONVILLE,FLORIDA STATE COLLEGE AT JACKSONVILLE - DOWNTOWN CAMPUS,"101 West State Street, Jacksonville, FL 32202",30.3349895,-81.6600966,POINT (1314614.6218341184 -968406.5482293384),4084,"1133 Ionia St, Jacksonville, FL 32206-5125",30.3366399,-81.6467448,1242.6470976097853,0.772145108572055
148400,148410,FL,FLORIDA STATE COLLEGE AT JACKSONVILLE,FLORIDA STATE COLLEGE AT JACKSONVILLE - ADVANCED TECHNOLOGY CENTER,"401 West State Street, Jacksonville, FL 322024086",30.3356136,-81.6614659,POINT (1314479.2685188744 -968358.0155798565),4086,"20 W 8th St, Jacksonville, FL 32206-3656",30.3456034,-81.6547476,1268.4183249595799,0.7881586068358162
148400,148404,FL,FLORIDA STATE COLLEGE AT JACKSONVILLE,FLORIDA STATE COLLEGE AT JACKSONVILLE - SOUTH CAMPUS,"11901 Beach Boulevard, Jacksonville, FL 32246",30.29154,-81.5101609,POINT (1329008.3823359534 -970983.3326802772),4088,"8711 Newton Rd, Jacksonville, FL 32216-0410",30.2784762,-81.5616864,4962.411102142723,3.0834993029102065
148400,148411,FL,FLORIDA STATE COLLEGE AT JACKSONVILLE,FLORIDA STATE COLLEGE AT JACKSONVILLE - CECIL CENTER,"5640 New World Avenue, Jacksonville, FL 322218116",30.251042,-81.8866835,POINT (1295449.2963432744 -980851.023024361),4076,"8257 Herlong Rd, Jacksonville, FL 32210-2323",30.2851915,-81.7884991,9806.64173696064,6.093564667939633
148400,148407,FL,FLORIDA STATE COLLEGE AT JACKSONVILLE,FLORIDA STATE COLLEGE AT JACKSONVILLE - DEERWOOD CENTER,"9911 Old Baymeadows Road, Jacksonville, FL 322568117",30.2218663,-81.5537294,POINT (1326267.942377409 -979245.6994544558),4088,"8711 Newton Rd, Jacksonville, FL 32216-0410",30.2784762,-81.5616864,6318.2888828037885,3.926002696007683
148400,148408,FL,FLORIDA STATE COLLEGE AT JACKSONVILLE,FLORIDA STATE COLLEGE AT JACKSONVILLE - URBAN RESOURCE CENTER,"601 West State Street, Jacksonville, FL 322024774",30.3354665,-81.6637123,POINT (1314277.6005056035 -968406.5916018632),4083,"1314 Union St W, Jacksonville, FL 32209-7627",30.3383684,-81.6762482,1197.9813129142792,0.7443910766835923
148400,148403,FL,FLORIDA STATE COLLEGE AT JACKSONVILLE,FLORIDA STATE COLLEGE AT JACKSONVILLE - KENT CAMPUS,"3939 Roosevelt Boulevard, Jacksonville, FL 32205",30.2994808,-81.7192094,POINT (1309855.8458710886 -973147.380055539),4082,"4758 Shelby Ave, Jacksonville, FL 32210-1716",30.2888854,-81.7278029,1416.3772363380688,0.8800960120012059
148400,148405,FL,FLORIDA STATE COLLEGE AT JACKSONVILLE,FLORIDA STATE COLLEGE AT JACKSONVILLE - NASSAU CENTER,"76346 William Burgess Boulevard, Yulee, FL 320970969",30.6094331,-81.62462,POINT (1313049.97308946 -937847.5027702603),3519,"516 S 10th St
Ste 100, Fernandina Beach, FL 32034-3511",30.6632504,-81.4578097,16417.182601126417,10.201164326039937
148400,148402,FL,FLORIDA STATE COLLEGE AT JACKSONVILLE,FLORIDA STATE COLLEGE AT JACKSONVILLE - NORTH CAMPUS,"4501 Capper Road, Jacksonville, FL 32218",30.4290642,-81.7211654,POINT (1307431.3693679813 -958986.8852574573),4123,"11100 Wingate Rd, Jacksonville, FL 32218-4552",30.4366782,-81.7103583,1303.7130294280319,0.8100897194310426
148500,148500,FL,COLLEGE OF THE FLORIDA KEYS,COLLEGE OF THE FLORIDA KEYS,"5901 College Road, Key West, FL 33040",24.5831322,-81.7431276,POINT (1406589.161041166 -1599156.357990044),4052,"5855 College Rd, Key West, FL 33040-4313",24.5808581,-81.7459593,377.02468919310223,0.2342722806268282
149000,149003,FL,GULF COAST STATE COLLEGE,GULF COAST STATE COLLEGE - NORTH BAY CAMPUS,"637 Highway 2300, Southport, FL 32409",30.2990682,-85.6622502,POINT (950058.7079383942 -1022198.7543049089),3843,"1804 Flower Ave, Panama City, FL 32405-3132",30.1807967,-85.6889075,13339.363997122233,8.28869651057961
149000,149000,FL,GULF COAST STATE COLLEGE,GULF COAST STATE COLLEGE - PANAMA CITY CAMPUS,"5230 W Hwy 98, Panama City, FL 32401",30.1856374,-85.7279634,POINT (945462.769272497 -1035377.4949894156),3843,"1804 Flower Ave, Panama City, FL 32405-3132",30.1807967,-85.6889075,3642.3198987012934,2.263232657965788
149000,149002,FL,GULF COAST STATE COLLEGE,GULF COAST STATE COLLEGE - GULF/FRANKLIN CAMPUS,"3800 Garrison St, Port. St. Joe, FL 32456",29.7781066,-85.2833515,POINT (991511.9657673795 -1075517.3182290161),3724,"176 Field of Dreams Avenue, Port St Joe, FL 32456",29.7739365,-85.2806135,527.3974142337737,0.32770956006532703
149300,149307,FL,INDIAN RIVER STATE COLLEGE,INDIAN RIVER STATE COLLEGE - STUART SQUARE SITE,"1998 South East Federal Highway, Stuart, FL 349943951",27.177106,-80.2369672,POINT (1504199.4776652 -1291568.9523452688),3490,"1050 SE 10th St, Stuart, FL 34996-4111",27.1895368,-80.2345711,1396.450598033836,0.8677141730008227
149300,149300,FL,INDIAN RIVER STATE COLLEGE,INDIAN RIVER STATE COLLEGE - MASSEY CAMPUS,"3209 Virginia Avenue, Fort Pierce, FL 34981",27.424246,-80.3578355,POINT (1488092.217374883 -1266579.8705804413),3997,"1035 S 27th Cir, Fort Pierce, FL 34947-4687",27.4377908,-80.3533354,1561.3365296549975,0.9701695409154273
149300,149301,FL,INDIAN RIVER STATE COLLEGE,INDIAN RIVER STATE COLLEGE - CHASTAIN CAMPUS,"2400 S.E. Salerno Road, Stuart, FL 34997",27.1351188,-80.2200187,POINT (1506603.8898851457 -1295871.0037925218),3493,"3400 SE Lionel Ter, Stuart, FL 34997-8838",27.1472111,-80.2076493,1789.943787596435,1.112219505336606
149300,149302,FL,INDIAN RIVER STATE COLLEGE,INDIAN RIVER STATE COLLEGE - DIXON HENDRY CAMPUS,"2229 NW 9th Ave, Okeechobee, FL 34972",27.2617519,-80.8392493,POINT (1445713.9441662289 -1292094.322021155),3701,"1798 NW 9th Ave, Okeechobee, FL 34972-4340",27.260993,-80.8384508,113.68166814728065,0.07063851367220472
149300,149306,FL,INDIAN RIVER STATE COLLEGE,INDIAN RIVER STATE COLLEGE - INDIANTOWN EDUCATION CENTER,"15545 South West Warfield, Indiantown, FL 349563510",27.0197305,-80.465124,POINT (1485606.0267567236 -1312500.3369274938),3317,"16489 SW Farm Rd
Bldg E, Indiantown, FL 34956-4405",27.0210207,-80.4786893,1311.3910662328842,0.8148606303145158
149300,,FL,INDIAN RIVER STATE COLLEGE,INDIAN RIVER STATE COLLEGE - HISTORIC SEBASTIAN SCHOOL SITE,"1235 Main Street, Sebastian, Florida 32958",27.8174197,-80.4756671,POINT (1469589.7491605398 -1225565.5431020486),3918,"7625 85th St, Vero Beach, FL 32967-4112",27.7481914,-80.4828594,7702.0671063328255,4.78584262055398
149300,149303,FL,INDIAN RIVER STATE COLLEGE,INDIAN RIVER STATE COLLEGE - MUELLER CAMPUS,"6155 College Lane, Vero Beach, FL 32966",27.6337953,-80.4559,POINT (1474904.2175117703 -1245297.6210341875),3702,"2771 4th St, Vero Beach, FL 32968-2050",27.607129,-80.4150474,4889.792677692955,3.0383763059314575
149300,,FL,INDIAN RIVER STATE COLLEGE,INDIAN RIVER STATE COLLEGE - TREASURE COAST PUBLIC SAFETY TRAINING COMPLEX,"4600 Kirby Loop Road, Fort Pierce, Florida 34981",27.4162198,-80.3690532,POINT (1487187.7099544848 -1267639.6604058957),3997,"1035 S 27th Cir, Fort Pierce, FL 34947-4687",27.4377908,-80.3533354,2823.361612373209,1.7543555711974623
